City_ID,City,Lat,Lng,Max Temp,Humidity,Cloudiness,Wind Speed,Country,Date
0,puerto natales,-51.7236,-72.4875,2.26,98,92,3.28,CL,1701493091
1,ilulissat,69.2167,-51.1,-8.6,66,26,4.09,GL,1701493092
2,port-aux-francais,-49.35,70.2167,4.78,90,100,11.67,TF,1701493092
3,kerman,30.2832,57.0788,3.92,45,0,2.06,IR,1701493093
4,colonia,50.9333,6.95,-0.1,74,100,1.54,DE,1701493094
5,katsuura,35.1333,140.3,12.74,43,26,3.54,JP,1701493095
6,carutapera,-1.195,-46.02,25.23,84,42,2.03,BR,1701493096
7,grytviken,-54.2811,-36.5092,2.78,62,36,4.4,GS,1701493096
8,fortuna,40.5982,-124.1573,10.19,97,0,3.58,US,1701493097
9,ushuaia,-54.8,-68.3,2.81,87,0,1.03,AR,1701493098
10,weno,7.4515,151.8468,28.7,76,55,8.01,FM,1701493099
11,enewetak,11.3474,162.3373,27.73,79,40,8.07,MH,1701493100
12,whitehorse,60.7161,-135.0538,-11.57,84,100,0.0,CA,1701493101
13,lira,2.235,32.9097,20.86,65,2,1.06,UG,1701492918
14,alofi,-19.0595,-169.9187,27.94,69,20,4.12,NU,1701493103
15,port elizabeth,-33.918,25.5701,19.5,87,20,3.6,ZA,1701493103
16,suva,-18.1416,178.4415,29.71,70,40,4.63,FJ,1701493104
17,invercargill,-46.4,168.35,11.47,91,100,3.26,NZ,1701492513
18,ribeira grande,38.5167,-28.7,18.21,87,100,10.28,PT,1701493105
19,puerto ayora,-0.7393,-90.3518,24.75,93,99,2.24,EC,1701493004
20,talnakh,69.4865,88.3972,-26.31,92,7,2.03,RU,1701493107
21,kasongo-lunda,-6.4667,16.8167,20.87,95,93,0.09,CD,1701493108
22,vorgashor,67.5833,63.95,-10.71,87,100,2.41,RU,1701493109
23,hermanus,-34.4187,19.2345,17.27,80,53,1.26,ZA,1701493110
24,college,64.8569,-147.8028,-19.03,82,0,1.54,US,1701493110
25,la'ie,21.6477,-157.9253,23.98,85,97,2.25,US,1701493111
26,waitangi,-43.9535,-176.5597,13.79,72,3,0.45,NZ,1701493112
27,wailua homesteads,22.0669,-159.378,22.44,87,75,1.54,US,1701493113
28,honefoss,60.168,10.2565,-6.15,93,96,0.92,NO,1701493113
29,glace bay,46.1969,-59.957,5.44,96,100,4.12,CA,1701493114
30,olonkinbyen,70.9221,-8.7187,-1.8,70,81,5.78,SJ,1701493115
31,port lincoln,-34.7333,135.8667,18.69,58,3,4.96,AU,1701493116
32,bilibino,68.0546,166.4372,-26.2,97,100,1.4,RU,1701493117
33,magadan,59.5667,150.8,-15.26,92,100,3.44,RU,1701492856
34,anadyr,64.75,177.4833,-13.72,85,100,2.0,RU,1701493119
35,adamstown,-25.066,-130.1015,22.09,82,7,5.95,PN,1701493119
36,fuyu,45.1833,124.8167,-9.78,83,13,4.14,CN,1701493120
37,tiksi,71.6872,128.8694,-27.43,91,100,1.98,RU,1701493121
38,murray bridge,-35.1167,139.2667,18.96,57,62,7.53,AU,1701493122
39,trakai,54.6333,24.9333,-2.69,95,97,1.09,LT,1701493123
40,trinidad,-14.8333,-64.9,24.42,81,85,2.28,BO,1701493123
41,stanley,54.868,-1.6985,-7.99,100,0,1.03,GB,1701493019
42,dakhla,23.6848,-15.958,19.67,94,3,2.93,EH,1701493125
43,botshabelo,-29.2702,26.7052,19.65,26,15,4.26,ZA,1701493014
44,yellowknife,62.456,-114.3525,-18.71,78,100,3.09,CA,1701493127
45,margaret river,-33.95,115.0667,20.96,66,87,5.02,AU,1701493128
46,cockburn town,21.4612,-71.1419,27.27,77,71,9.38,TC,1701493128
47,portland,45.5234,-122.6762,8.78,93,100,4.47,US,1701492877
48,bethel,41.3712,-73.414,7.89,88,100,0.0,US,1701493026
49,constantia,44.1833,28.65,8.38,87,14,5.16,RO,1701492846
50,newman,37.3138,-121.0208,9.6,50,14,0.45,US,1701492983
51,howard springs,-12.497,131.047,36.66,64,79,2.92,AU,1701493132
52,hawaiian paradise park,19.5933,-154.9731,23.73,93,100,2.06,US,1701493133
53,qaqortoq,60.7167,-46.0333,-5.77,80,99,2.77,GL,1701493134
54,whitby,54.4877,-0.615,-2.01,75,17,1.7,GB,1701492923
55,parauapebas,-6.0675,-49.9022,22.82,89,10,1.23,BR,1701493135
56,kilju,40.9642,129.3278,0.76,31,56,1.31,KP,1701493136
57,lebu,-37.6167,-73.65,10.78,73,94,5.39,CL,1701493137
58,avarua,-21.2078,-159.775,25.03,83,100,6.17,CK,1701493138
59,tsiombe,-25.3,45.4833,22.11,58,93,7.08,MG,1701493139
60,nova sintra,14.8667,-24.7167,22.66,74,100,3.05,CV,1701493139
61,nuku'alofa,-21.1333,-175.2,29.19,79,20,4.63,TO,1701493140
62,hadibu,12.65,54.0333,25.78,74,63,8.5,YE,1701493141
63,bredasdorp,-34.5322,20.0403,17.68,69,22,2.17,ZA,1701493142
64,roma,43.2128,-75.4557,5.96,95,100,2.24,US,1701493143
65,atafu village,-8.5421,-172.5159,28.26,77,100,5.52,TK,1701493144
66,christchurch,-43.5333,172.6333,19.74,62,96,7.2,NZ,1701492502
67,grande prairie,55.1667,-118.8027,-7.9,86,100,1.54,CA,1701493146
68,nola,40.922,14.5329,19.11,79,96,2.33,IT,1701493147
69,aykhal,66.0,111.5,-30.06,100,100,2.64,RU,1701493148
70,ghanzi,-21.5667,21.7833,23.71,32,7,6.28,BW,1701492918
71,kodiak,57.79,-152.4072,2.73,87,100,3.09,US,1701493150
72,ust-nera,64.5667,143.2,-28.66,100,100,1.1,RU,1701493151
73,barbastro,42.0356,0.1269,6.3,85,34,3.0,ES,1701493152
74,hithadhoo,-0.6,73.0833,28.04,74,78,5.02,MV,1701492853
75,thompson,55.7435,-97.8558,-11.91,79,100,6.17,CA,1701492987
76,codrington,-38.2667,141.9667,16.67,64,15,5.86,AU,1701493154
77,pimentel,-6.8367,-79.9342,21.16,83,0,7.72,PE,1701493156
78,rugaji,57.0,27.1333,-8.22,98,100,1.75,LV,1701493157
79,iqaluit,63.7506,-68.5145,-5.15,62,75,8.75,CA,1701493158
80,blackmans bay,-43.0167,147.3167,18.18,70,100,0.89,AU,1701493159
81,badger,64.8,-147.5333,-19.07,84,0,1.54,US,1701493160
82,reggane,26.7158,0.1714,15.92,15,48,2.12,DZ,1701493161
83,mina clavero,-31.721,-65.0062,18.32,82,1,5.1,AR,1701493162
84,geraldton,-28.7667,114.6,26.23,61,0,6.69,AU,1701493163
85,isafjordur,66.0755,-23.124,-2.87,82,94,0.88,IS,1701493163
86,binzhou,37.3667,118.0167,7.88,19,0,4.05,CN,1701493164
87,albany,42.6001,-73.9662,6.52,89,100,0.89,US,1701493110
88,udachny,66.4167,112.4,-31.42,74,100,2.36,RU,1701493166
89,saipan,15.1355,145.701,29.39,84,40,7.2,MP,1701493167
90,punta arenas,-53.15,-70.9167,4.06,81,75,7.2,CL,1701492899
91,san patricio,28.017,-97.5169,17.17,81,89,3.53,US,1701493168
92,pangai,-19.8,-174.35,29.06,79,20,6.17,TO,1701493169
93,aasiaat,68.7098,-52.8699,-11.28,86,52,3.54,GL,1701493170
94,tumayr,25.7039,45.868,17.54,36,0,3.16,SA,1701493171
95,ouadda,8.0777,22.4007,21.95,65,48,0.21,CF,1701493172
96,ponta delgada,37.7333,-25.6667,18.4,63,40,6.17,PT,1701493173
97,gazojak,41.1875,61.4036,10.55,61,7,2.72,TM,1701493174
98,nyurba,63.2842,118.3319,-30.02,98,100,1.13,RU,1701493174
99,summerside,46.3959,-63.7876,5.06,100,100,0.51,CA,1701493175
100,west island,-12.1568,96.8225,27.99,65,40,5.66,CC,1701493176
101,khanty-mansiysk,61.0042,69.0019,-15.94,78,75,1.0,RU,1701493177
102,edinburgh of the seven seas,-37.0676,-12.3116,13.35,77,70,6.88,SH,1701493176
103,luanco,43.6152,-5.7934,9.71,93,76,3.06,ES,1701493178
104,pirgaaj,25.8604,88.3635,27.03,41,89,1.42,BD,1701493180
105,port said,31.2565,32.2841,19.99,73,40,5.14,EG,1701492996
106,ghat,24.9647,10.1728,17.12,17,8,3.11,LY,1701493181
107,tomatlan,19.9333,-105.25,21.97,82,100,1.09,MX,1701493182
108,damghan,36.1683,54.348,10.44,49,0,0.15,IR,1701493183
109,lihue,21.9789,-159.3672,22.42,88,82,2.05,US,1701493184
110,dazhou,31.2159,107.5009,12.56,69,100,0.51,CN,1701493184
111,bastrop,32.7562,-91.8724,16.99,83,100,0.45,US,1701493185
112,peruibe,-24.32,-46.9983,21.87,96,40,0.81,BR,1701493186
113,galliano,29.4422,-90.2992,22.0,94,100,2.57,US,1701493187
114,malvan,16.0667,73.4667,28.7,56,41,1.31,IN,1701493188
115,blanchard,35.1378,-97.6581,3.99,78,96,2.61,US,1701493189
116,krymsk,44.9293,37.9912,12.81,74,89,6.25,RU,1701493190
117,lata,40.1629,-8.3327,5.6,93,3,0.8,PT,1701493190
118,puerto real,36.5282,-6.1901,9.09,87,0,2.57,ES,1701493191
119,vilyuchinsk,52.9306,158.4028,-2.85,75,14,5.85,RU,1701493192
120,longyearbyen,78.2186,15.6401,-7.09,68,0,7.2,SJ,1701493193
121,papatowai,-46.5619,169.4708,15.7,70,100,2.27,NZ,1701493179
122,keflavik,64.0049,-22.5624,-0.76,74,0,3.09,IS,1701493194
123,saldanha,-33.0117,17.9442,12.03,83,6,1.45,ZA,1701493195
124,iskateley,67.6803,53.1512,-6.66,96,100,2.24,RU,1701493195
125,satipo,-11.2522,-74.6386,19.86,93,61,1.03,PE,1701493196
126,port alfred,-33.5906,26.891,19.54,84,90,2.24,ZA,1701493197
127,hami,42.8,93.45,3.83,23,81,0.93,CN,1701493198
128,lompoc,34.6391,-120.4579,12.23,79,0,3.6,US,1701493199
129,victorica,-36.2151,-65.4359,19.23,33,30,6.72,AR,1701493199
130,pont rouge,48.8833,-72.0825,-7.84,91,89,1.93,CA,1701493200
131,fort bragg,35.139,-79.006,18.85,92,100,3.09,US,1701493024
132,kokopo,-4.352,152.2633,24.74,91,100,1.8,PG,1701493204
133,nuuk,64.1835,-51.7216,-6.27,91,100,2.54,GL,1701493208
134,galesong,-5.3166,119.3661,32.01,69,83,2.5,ID,1701493214
135,baoding,38.8511,115.4903,7.77,14,0,1.09,CN,1701493216
136,el alto,-4.2714,-81.2147,21.06,76,94,7.55,PE,1701493219
137,severomorsk,69.0689,33.4162,-18.67,99,96,2.25,RU,1701493221
138,altai,46.3722,96.2583,-3.34,43,72,2.48,MN,1701493151
139,chaoyang,41.5703,120.4586,2.11,29,0,8.31,CN,1701493224
140,zdvinsk,54.7021,78.661,-4.41,93,100,4.97,RU,1701493225
141,san luis de la loma,17.2706,-100.8939,26.48,74,100,0.26,MX,1701493228
142,broome,42.2506,-75.833,5.56,95,100,2.68,US,1701493229
143,khrenovoye,51.12,40.2889,-2.6,90,100,3.51,RU,1701493230
144,la ronge,55.1001,-105.2842,-10.86,92,0,2.06,CA,1701493030
145,sao vicente,-23.9631,-46.3919,26.26,26,43,0.26,BR,1701493170
146,urangan,-25.3,152.9,24.25,91,49,10.3,AU,1701493232
147,laguna,38.421,-121.4238,13.05,76,100,2.06,US,1701493233
148,guia lopes da laguna,-21.4578,-56.1142,24.22,72,24,1.14,BR,1701493234
149,luderitz,-26.6481,15.1594,17.99,74,88,8.08,NA,1701493235
150,nar'yan-mar,67.6713,53.087,-6.61,96,100,2.24,RU,1701493236
151,lazaro cardenas,17.9583,-102.2,24.93,78,100,1.72,MX,1701493237
152,dryden,49.7833,-92.7503,-3.84,80,100,3.6,CA,1701493240
153,uturoa,-16.7333,-151.4333,27.1,81,23,8.21,PF,1701493240
154,jamestown,42.097,-79.2353,6.77,100,100,2.57,US,1701492997
155,acarau,-2.8856,-40.12,25.92,83,54,4.25,BR,1701493243
156,east london,-33.0153,27.9116,19.52,82,0,6.17,ZA,1701493245
157,wentorf bei hamburg,53.5,10.25,-1.23,99,97,0.74,DE,1701493246
158,carnarvon,-24.8667,113.6333,26.7,63,4,6.81,AU,1701493248
159,taulaga,-11.0553,-171.0883,26.77,84,100,7.82,AS,1701493250
160,nadym,65.5333,72.5167,-20.62,99,72,3.75,RU,1701493251
161,puerto aysen,-45.4,-72.7,2.5,99,96,2.6,CL,1701493253
162,klyuchi,52.2667,79.1667,-0.51,81,100,6.52,RU,1701493255
163,tazacorte,28.629,-17.9293,17.86,88,75,3.09,ES,1701493256
164,arraial do cabo,-22.9661,-42.0278,22.2,97,34,0.29,BR,1701493257
165,hasaki,35.7333,140.8333,14.05,55,17,6.09,JP,1701493258
166,ploudalmezeau,48.5333,-4.65,5.71,87,25,2.57,FR,1701493259
167,kijang,35.2442,129.2139,7.85,40,0,3.54,KR,1701493260
168,shevchenko,48.5,35.0,2.45,92,100,3.5,UA,1701493264
169,georgetown,5.4112,100.3354,29.96,83,20,3.6,MY,1701493266
170,port mathurin,-19.6833,63.4167,25.78,80,19,6.41,MU,1701493037
171,vilyuysk,63.7553,121.6247,-30.26,97,100,2.32,RU,1701493268
172,mili,6.0815,171.735,28.27,78,100,7.95,MH,1701493269
173,muhos,64.808,25.9931,-6.73,97,100,2.02,FI,1701493271
174,amble,55.3333,-1.5833,-2.92,93,10,3.6,GB,1701493272
175,fale old settlement,-9.3852,-171.2468,28.84,71,69,5.47,TK,1701493177
176,beyneu,45.3167,55.2,6.08,84,72,4.22,KZ,1701493275
177,aoulef,26.9667,1.0833,16.06,14,49,2.55,DZ,1701493276
178,lospalos,-8.5186,127.0025,33.25,41,20,3.45,TL,1701493194
179,banda aceh,5.5577,95.3222,27.71,77,94,1.98,ID,1701493278
180,hotan,37.0997,79.9269,6.64,27,54,1.94,CN,1701493089
181,lorengau,-2.0226,147.2712,28.47,76,97,2.95,PG,1701493281
182,guerrero negro,27.9769,-114.0611,17.29,65,1,6.2,MX,1701492776
183,utrik,11.2278,169.8474,27.37,77,100,9.3,MH,1701493283
184,sitka,57.0531,-135.33,3.15,91,85,2.8,US,1701493284
185,villagarzon,1.0375,-76.6267,22.41,86,95,1.74,CO,1701493287
186,nouadhibou,20.931,-17.0347,19.99,94,100,3.09,MR,1701493288
187,saudarkrokur,65.7461,-19.6394,-4.38,78,88,1.94,IS,1701493040
188,kavaratti,10.5669,72.642,28.39,72,97,5.58,IN,1701493290
189,touros,-5.1989,-35.4608,25.69,79,49,4.45,BR,1701493098
190,laayoune,27.1622,-13.2032,18.19,100,75,4.12,EH,1701493023
191,kapa'a,22.0752,-159.319,22.83,86,88,2.4,US,1701493293
192,cheremshan,54.6667,51.5,-1.73,97,100,4.98,RU,1701493294
193,pisco,-13.7,-76.2167,20.03,77,0,4.63,PE,1701493295
194,atar,20.5169,-13.0499,19.55,47,95,2.64,MR,1701493296
195,sakakah,29.9697,40.2064,11.76,48,0,3.25,SA,1701493297
196,fort st. john,56.2499,-120.8529,-8.06,86,20,2.57,CA,1701493214
197,petropavlovsk-kamchatsky,53.0452,158.6483,-3.67,81,20,8.0,RU,1701493299
198,jayapura,-2.5333,140.7,32.66,66,75,2.93,ID,1701493217
199,haining,30.5363,120.6864,12.01,29,37,2.29,CN,1701493302
200,amos,48.5669,-78.1162,-13.04,97,100,0.59,CA,1701493304
201,kuta,-8.7233,115.1723,28.97,74,40,2.24,ID,1701493307
202,crane,31.3974,-102.3501,12.48,41,96,1.32,US,1701493308
203,ilha de mocambique,-15.0342,40.7358,25.76,80,100,5.37,MZ,1701493309
204,yung shue wan,22.2333,114.1167,21.0,69,100,3.23,HK,1701493311
205,tantou,26.0314,119.5986,13.87,54,75,7.0,CN,1701493313
206,fort mcmurray,56.7268,-111.381,-10.23,92,0,3.09,CA,1701493211
207,emerald,-23.5333,148.1667,34.65,37,59,2.01,AU,1701493315
208,whakatane,-37.9585,176.9854,19.73,80,94,2.24,NZ,1701493316
209,papao,-17.75,-149.55,28.82,77,18,8.03,PF,1701493317
210,yaren,-0.5472,166.916,27.31,79,100,2.17,NR,1701493318
211,trondheim,63.4305,10.3951,-5.95,88,26,0.89,NO,1701493216
212,st. john's,47.5649,-52.7093,5.66,94,100,7.2,CA,1701493205
213,chonchi,-42.6128,-73.8092,5.56,94,11,1.57,CL,1701493321
214,bindura,-17.3019,31.3306,19.88,66,21,1.1,ZW,1701493322
215,figeac,44.75,1.9167,2.21,87,96,2.92,FR,1701493323
216,wladyslawowo,54.7909,18.4009,-0.59,72,99,3.12,PL,1701493324
217,rio grande,-32.035,-52.0986,21.08,97,100,1.71,BR,1701493325
218,alice springs,-23.7,133.8833,32.75,27,2,2.57,AU,1701493186
219,antofagasta,-23.65,-70.4,16.6,80,40,2.17,CL,1701492964
220,serowe,-22.3833,26.7167,19.84,36,0,4.32,BW,1701493328
221,nova vicosa,-17.8919,-39.3719,24.87,88,43,5.09,BR,1701493145
222,san borja,-14.8167,-66.85,24.18,83,100,2.33,BO,1701493329
223,abu jibeha,11.4562,31.2285,25.42,32,5,3.2,SD,1701493331
224,berdigestyakh,62.0989,126.6992,-27.25,96,100,2.37,RU,1701493332
225,aldinga beach,-35.2793,138.4604,22.92,55,32,5.91,AU,1701493333
226,zouerate,22.7187,-12.4521,17.32,71,57,1.73,MR,1701493333
227,castillos,-34.1667,-53.8333,19.84,98,100,5.66,UY,1701493334
228,coos bay,43.3665,-124.2179,11.63,87,75,3.09,US,1701492858
229,nagqu,31.5,92.0,-1.58,20,36,4.6,CN,1701493336
230,abepura,-2.6333,140.5833,32.45,55,20,3.09,ID,1701493338
231,bambari,5.768,20.6757,23.95,78,45,1.22,CF,1701493339
232,ust'-ilimsk,58.0006,102.6619,-7.53,94,100,2.68,RU,1701493191
233,akjoujt,19.6969,-14.4164,21.32,47,100,3.79,MR,1701493340
234,las khorey,11.1595,48.1967,25.67,66,16,3.74,SO,1701493342
235,peace river,56.2501,-117.286,-11.83,85,40,2.06,CA,1701493213
236,igarka,67.4667,86.5833,-21.49,94,100,4.1,RU,1701493344
237,warrnambool,-38.3833,142.4833,17.67,58,23,5.52,AU,1701493287
238,mossel bay,-34.1831,22.146,18.96,71,7,2.61,ZA,1701493346
239,cururupu,-1.8283,-44.8683,24.09,89,76,1.11,BR,1701493347
240,ciudad lazaro cardenas,17.9583,-102.2,24.93,78,100,1.72,MX,1701493185
241,berezovskiy,55.6,86.2,-3.77,94,100,5.27,RU,1701493349
242,haiku-pauwela,20.9219,-156.3051,25.02,88,20,3.09,US,1701493196
243,richards bay,-28.783,32.0377,22.05,64,0,7.08,ZA,1701493000
244,guantanamo,20.1444,-75.2092,23.59,89,41,1.94,CU,1701493352
245,chiang klang,19.2938,100.8617,28.78,69,76,0.33,TH,1701493354
246,westport,41.1415,-73.3579,9.62,92,100,2.06,US,1701493107
247,padang,-0.9492,100.3543,29.03,77,93,1.66,ID,1701493356
248,sisimiut,66.9395,-53.6735,-4.9,77,82,3.16,GL,1701493195
249,pauini,-7.7136,-66.9764,22.41,98,98,0.96,BR,1701493358
250,mula,38.0409,-1.4901,10.27,66,1,3.58,ES,1701493359
251,morehead city,34.7229,-76.726,21.13,89,75,6.17,US,1701493063
252,garbahaarrey,3.3289,42.2209,28.03,42,87,5.98,SO,1701493361
253,ixtapa,20.7,-105.2,20.42,70,100,1.27,MX,1701493227
254,mareeba,-17.0,145.4333,26.93,91,62,2.09,AU,1701493217
255,undurkhaan,47.3194,110.6556,-9.47,79,9,2.84,MN,1701493363
256,fisterra,42.9049,-9.2629,8.19,65,39,5.93,ES,1701493310
257,yacuiba,-22.038,-63.6797,24.56,76,100,3.15,BO,1701493364
258,tura,25.5198,90.2201,24.21,47,85,4.24,IN,1701493261
259,kiruna,67.8557,20.2251,-12.49,92,100,1.03,SE,1701493183
260,murzuq,25.9155,13.9184,13.05,29,32,3.78,LY,1701493366
261,severo-yeniseyskiy,60.3725,93.0408,-8.57,98,100,1.34,RU,1701493367
262,amarante do maranhao,-5.5667,-46.7422,22.24,89,2,1.71,BR,1701493152
263,yuma,32.7253,-114.6244,12.71,57,0,0.0,US,1701493369
264,kabin buri,13.9511,101.7177,31.39,61,96,4.53,TH,1701493369
265,huazhou,21.6333,110.5833,19.91,62,100,2.81,CN,1701493370
266,katsuren-haebaru,26.3369,127.8719,20.22,56,99,4.87,JP,1701493371
267,khandyga,62.6667,135.6,-34.42,100,100,0.94,RU,1701493372
268,kudahuvadhoo,2.6708,72.8944,27.92,76,100,5.31,MV,1701493373
269,radashkovichy,54.1551,27.2424,-4.5,97,100,2.14,BY,1701493374
270,kapuskasing,49.4169,-82.4331,-6.95,86,100,2.06,CA,1701493375
271,egilsstadir,65.2653,-14.3948,-2.05,93,75,2.57,IS,1701493376
272,narva,59.3772,28.1903,-11.84,99,90,0.61,EE,1701493377
273,mallapuram,11.9667,78.25,25.19,74,97,2.65,IN,1701493377
274,flin flon,54.7682,-101.865,-14.68,100,87,1.73,CA,1701493379
275,mankoeng,-23.9,29.8167,15.01,52,0,1.05,ZA,1701493380
276,williamsburg,37.2707,-76.7075,17.63,94,100,0.0,US,1701493381
277,kirakira,-10.4544,161.9205,28.6,80,81,9.17,SB,1701493382
278,remire-montjoly,4.9167,-52.2667,23.02,100,0,0.0,GF,1701493383
279,dunedin,-45.8742,170.5036,14.89,78,100,2.68,NZ,1701493323
280,kasson,44.03,-92.7507,-2.3,73,0,1.54,US,1701493385
281,mount gambier,-37.8333,140.7667,17.9,54,52,4.75,AU,1701493367
282,bontang,0.1333,117.5,29.15,70,89,2.31,ID,1701493387
283,new norfolk,-42.7826,147.0587,18.29,50,100,3.3,AU,1701493257
284,aberdeen,57.1437,-2.0981,-6.73,93,12,0.51,GB,1701493253
285,dolores,-36.3132,-57.6792,16.37,96,77,2.36,AR,1701493390
286,bianzhuang,34.8486,118.0447,9.1,24,0,3.49,CN,1701493391
287,kostomuksha,64.571,30.5767,-9.42,95,100,4.02,RU,1701493392
288,ouesso,1.6136,16.0517,20.99,99,98,0.97,CG,1701493393
289,gloucester,51.8657,-2.2431,-1.12,93,10,0.45,GB,1701493305
290,vasto,42.1243,14.7059,14.67,47,100,3.98,IT,1701493395
291,nyaungdon,17.0333,95.65,30.07,57,91,5.02,MM,1701493396
292,ad darb,17.7229,42.2526,27.47,66,0,2.01,SA,1701493397
293,markala,13.7021,-6.0659,25.07,21,89,4.16,ML,1701493398
294,xai-xai,-25.0519,33.6442,22.09,60,0,1.83,MZ,1701493399
295,vorkuta,67.5,64.0,-10.78,89,100,2.28,RU,1701493400
296,hammerfest,70.6634,23.6821,-6.75,73,84,3.09,NO,1701493293
297,sao joao da barra,-21.6403,-41.0511,22.53,96,1,0.55,BR,1701493402
298,raahe,64.6833,24.4833,-6.69,96,100,3.11,FI,1701493402
299,yreka,41.7354,-122.6345,3.5,96,20,3.6,US,1701493171
300,ta`u,-14.2336,-169.5144,27.84,82,100,6.59,AS,1701493405
301,wynyard,-41.0,145.7167,15.82,79,100,2.74,AU,1701493406
302,port augusta,-32.5,137.7667,24.11,36,0,7.12,AU,1701493407
303,saint-pierre,-21.3393,55.4781,26.82,61,75,1.54,RE,1701493176
304,puerto baquerizo moreno,-0.9,-89.6,24.1,83,86,6.3,EC,1701493357
305,yongchuan,29.3514,105.8947,10.95,85,100,0.77,CN,1701493409
306,priargunsk,50.3691,119.1012,-18.29,92,48,1.73,RU,1701493410
307,labrador city,52.9463,-66.9114,-16.05,85,100,2.06,CA,1701493170
308,isla vista,34.4133,-119.861,14.67,52,0,4.12,US,1701493412
309,boguchany,58.3814,97.4531,-4.52,91,100,2.24,RU,1701493187
310,mahebourg,-20.4081,57.7,27.92,83,75,1.03,MU,1701493414
311,sivagiri,9.3333,77.4333,29.5,71,100,0.65,IN,1701493415
312,pacific grove,36.6177,-121.9166,11.21,82,0,1.54,US,1701493330
313,champerico,14.3,-91.9167,26.7,79,0,2.5,GT,1701493416
314,hilton head island,32.2163,-80.7526,20.06,84,0,0.0,US,1701493317
315,goulburn,-34.75,149.7167,20.13,61,76,3.57,AU,1701493418
316,colombo,6.9319,79.8478,26.97,78,100,3.76,LK,1701493318
317,las tunas,20.9617,-76.9511,23.26,91,25,4.62,CU,1701493420
318,faya-largeau,17.9257,19.1043,21.33,19,52,8.61,TD,1701493421
319,tazovsky,67.4667,78.7,-15.36,93,100,4.91,RU,1701493422
320,san sebastian de la gomera,28.0916,-17.1133,20.21,72,0,1.03,ES,1701493422
321,sibiti,-3.6819,13.3499,19.65,99,100,0.85,CG,1701493423
322,kendall west,25.7065,-80.4388,26.1,93,20,3.09,US,1701493424
323,egersund,58.4513,5.9997,-2.73,78,100,2.47,NO,1701493425
324,gobabis,-22.45,18.9667,24.95,42,65,2.95,NA,1701493425
325,gazli,40.1333,63.45,11.8,42,41,1.29,UZ,1701493426
326,santyoku,37.4406,129.1708,6.55,49,6,4.99,KR,1701493427
327,mangai,-4.05,19.5333,20.62,100,100,0.42,CD,1701493428
328,grand falls-windsor,48.9332,-55.6649,1.39,92,100,4.99,CA,1701493428
329,aral,40.5156,81.2636,5.1,32,0,1.48,CN,1701493429
330,fonte boa,-2.4959,-66.2662,23.82,97,97,0.67,BR,1701493430
331,singkil,-7.9855,111.4161,31.24,65,81,2.32,ID,1701493431
332,ruteng,-8.6136,120.4721,20.96,86,100,0.2,ID,1701493431
333,wilmington island,32.0036,-80.9737,20.05,95,0,2.06,US,1701493432
334,gizo,-8.103,156.8419,28.8,77,99,3.35,SB,1701493433
335,port macquarie,-31.4333,152.9167,23.27,86,60,3.49,AU,1701493433
336,eastham,41.8301,-69.9739,9.41,80,100,4.63,US,1701493434
337,sassandra,4.95,-6.0833,25.36,90,77,2.8,CI,1701493286
338,quellon,-43.1167,-73.6167,4.54,87,11,3.4,CL,1701493436
339,sucua,-2.4667,-78.1667,20.34,86,92,0.94,EC,1701493437
340,bakanas,44.8081,76.2772,5.29,67,98,2.57,KZ,1701493438
341,vallenar,-28.5708,-70.7581,18.73,49,0,1.07,CL,1701493439
342,vadso,70.0744,29.7487,-8.91,86,100,2.57,NO,1701493440
343,mulayjah,27.271,48.4242,17.22,33,0,3.03,SA,1701493440
344,saint-philippe,-21.3585,55.7679,26.77,80,100,2.2,RE,1701493441
345,alaghsas,17.0187,8.0168,18.22,14,8,3.72,NE,1701493442
346,springbok,-29.6643,17.8865,17.69,43,96,0.3,ZA,1701493443
347,joao pinheiro,-17.7425,-46.1725,24.03,65,86,0.71,BR,1701493444
348,natal,-5.795,-35.2094,25.12,88,40,2.06,BR,1701493224
349,patterson,37.4716,-121.1297,12.86,75,17,1.17,US,1701493448
350,batticaloa,7.7102,81.6924,26.05,86,100,8.54,LK,1701493274
351,dudinka,69.4058,86.1778,-24.62,91,9,6.46,RU,1701493451
352,island harbour,50.724,-1.2758,-0.47,94,44,2.85,GB,1701493295
353,thetford-mines,46.0937,-71.3054,0.06,100,100,1.19,CA,1701493452
354,sterling,39.0062,-77.4286,9.18,91,100,1.79,US,1701493228
355,yelizovo,53.1873,158.3805,-2.92,46,20,8.0,RU,1701493455
356,puri,19.8,85.85,26.29,51,83,6.73,IN,1701493455
357,at taj,24.2049,23.2857,11.73,51,0,3.79,LY,1701493456
358,polyarnyy,69.1989,33.4478,-14.22,98,95,2.75,RU,1701493457
359,bikenibeu village,1.3673,173.1241,30.98,66,40,2.57,KI,1701493459
360,al jawf,29.5,38.75,13.78,50,0,3.17,SA,1701493289
361,leppavirta,62.4901,27.7826,-12.81,98,88,1.81,FI,1701493460
362,krasnokamensk,50.0979,118.0369,-12.38,82,13,1.84,RU,1701493461
363,sanibel,26.449,-82.0223,23.03,92,97,0.89,US,1701493462
364,polovinnoye,54.7914,65.9864,-1.38,98,93,2.89,RU,1701493463
365,nishinoomote,30.7333,131.0,13.31,58,20,5.66,JP,1701493464
366,kenora,49.8167,-94.4337,-5.46,93,40,2.57,CA,1701493465
367,prieska,-29.6641,22.7474,25.41,37,99,4.72,ZA,1701493466
368,zhangye,38.9342,100.4517,3.02,20,78,0.68,CN,1701493321
369,mount isa,-20.7333,139.5,32.87,46,40,4.12,AU,1701493259
370,baker city,44.7749,-117.8344,-0.2,95,100,0.0,US,1701493385
371,mirny,62.5353,113.9611,-27.65,75,35,0.89,RU,1701493470
372,homer,59.6425,-151.5483,-0.07,86,0,2.57,US,1701493429
373,naharlagun,27.1047,93.6952,23.53,37,60,1.83,IN,1701493473
374,mermoz boabab,14.7065,-17.4758,23.31,76,98,9.16,SN,1701493473
375,cabo san lucas,22.8909,-109.9124,23.2,60,95,3.74,MX,1701493474
376,kitimat,54.0524,-128.6534,1.21,64,100,1.18,CA,1701493467
377,ishigaki,24.3448,124.1572,19.07,94,75,6.17,JP,1701493477
378,amesbury,42.8584,-70.9301,8.41,89,100,0.45,US,1701493240
379,nizao,18.25,-70.2,25.82,83,11,7.08,DO,1701493480
380,manicore,-5.8092,-61.3003,22.98,98,84,0.35,BR,1701493403
381,safi,32.1667,-8.8333,13.27,69,82,3.81,MA,1701493482
382,kargasok,59.0556,80.8572,-9.46,97,100,1.79,RU,1701493482
383,anton lizardo,19.05,-95.9833,25.12,87,85,0.96,MX,1701493484
384,novoul'yanovsk,54.1496,48.3891,-1.25,94,100,1.51,RU,1701493485
385,isoka,-10.1606,32.6335,17.75,90,98,0.74,ZM,1701493486
386,kone,-21.0595,164.8658,30.23,54,14,1.71,NC,1701493487
387,itaituba,-4.2761,-55.9836,23.59,90,43,0.82,BR,1701493488
388,nemuro,43.3236,145.575,1.56,50,8,3.79,JP,1701493489
389,mil'kovo,55.6078,37.7956,-4.27,100,77,2.41,RU,1701493490
390,biryusinsk,55.9634,97.8235,-2.6,96,100,1.68,RU,1701493491
391,concepcion,-36.827,-73.0498,11.89,94,100,5.14,CL,1701493231
392,grantsville,40.5999,-112.4644,1.27,78,100,2.24,US,1701493492
393,san ignacio de velasco,-16.3667,-60.95,23.48,81,29,2.87,BO,1701493493
394,gemena,3.25,19.7667,21.91,92,71,0.8,CD,1701493494
395,caluula,11.9661,50.7569,26.89,65,25,7.8,SO,1701493495
396,nyandoma,61.669,40.1991,-17.48,99,99,0.23,RU,1701493497
397,abomsa,9.9833,39.9833,21.05,46,15,0.84,ET,1701493497
398,brigantine,39.4101,-74.3646,10.57,98,100,1.34,US,1701493498
399,nizhnesortymskiy,62.4397,71.7603,-21.84,100,82,3.13,RU,1701493499
400,bullhead city,35.1478,-114.5683,12.27,45,0,3.13,US,1701493501
401,conchas,-23.0153,-48.0106,23.54,74,20,1.71,BR,1701493504
402,nevel'sk,46.6733,141.8633,-1.07,75,100,5.14,RU,1701493505
403,nagaur,27.2,73.7333,22.12,41,0,3.6,IN,1701493506
404,nogales,31.3086,-110.9422,5.8,87,0,0.0,MX,1701493507
405,timbuktu,16.7735,-3.0074,22.89,19,98,4.52,ML,1701493253
406,gebeit,21.0667,36.3167,19.79,85,0,2.23,SD,1701493509
407,tolanaro,-25.0319,46.9987,22.04,64,75,4.12,MG,1701493510
408,yulinshi,38.2906,109.7494,0.69,17,0,2.23,CN,1701493511
409,tehachapi,35.1322,-118.449,4.11,82,33,5.81,US,1701493512
410,port arthur,38.8,121.2667,6.12,45,2,5.42,CN,1701493307
411,amungan,15.3652,119.9582,32.02,56,70,0.44,PH,1701493514
412,chinchilla,-26.75,150.6333,32.74,29,5,9.04,AU,1701493516
413,troitsko-pechorsk,62.7084,56.1964,-6.28,94,100,1.34,RU,1701493517
414,kyaikkami,16.08,97.5675,29.47,63,96,1.91,MM,1701493518
415,nikolayevsk-on-amure,53.1406,140.73,-13.02,83,100,2.47,RU,1701493519
416,tamanrasset,22.785,5.5228,8.95,25,0,1.03,DZ,1701493247
417,kiama,-34.6833,150.8667,22.78,83,95,1.19,AU,1701493521
418,luena,-11.7833,19.9167,19.1,100,0,1.54,AO,1701493522
419,afaahiti,-17.75,-149.2833,27.93,82,34,6.69,PF,1701493522
420,kuqa,41.7278,82.9364,4.72,38,44,0.69,CN,1701493523
421,cidreira,-30.1811,-50.2056,21.92,94,63,8.56,BR,1701493524
422,yigo village,13.5361,144.8886,28.74,85,40,8.75,GU,1701493525
423,kavieng,-2.5744,150.7967,27.64,76,99,1.42,PG,1701493526
424,susuman,62.7833,148.1667,-26.83,99,100,1.65,RU,1701493527
425,labytnangi,66.6572,66.4183,-18.49,99,100,1.59,RU,1701493427
426,bom jesus,-9.0744,-44.3586,24.19,49,49,0.95,BR,1701493529
427,galich,58.3797,42.3475,-8.32,96,100,1.47,RU,1701493530
428,prince rupert,54.3161,-130.3201,5.83,88,100,11.32,CA,1701493278
429,naha,26.2125,127.6811,20.16,60,75,6.69,JP,1701493532
430,wanning,18.8003,110.3967,23.83,87,95,7.04,CN,1701493533
431,thunder bay,48.4001,-89.3168,-3.01,63,75,2.57,CA,1701493259
432,aur,8.1499,171.1687,28.06,78,18,8.49,MH,1701493535
433,opuwo,-18.0607,13.84,21.08,79,99,4.5,NA,1701493536
434,kirensk,57.7853,108.1119,-10.02,91,100,4.02,RU,1701493537
435,ganye,8.4333,12.0667,22.83,27,82,1.22,NG,1701493538
436,la peca,-5.6111,-78.435,18.14,93,94,0.88,PE,1701493539
437,marialva,-23.485,-51.7917,26.26,74,51,1.38,BR,1701493540
438,mersa matruh,31.3525,27.2453,12.11,87,0,0.0,EG,1701493541
439,saarijarvi,62.7049,25.254,-8.91,100,95,1.42,FI,1701493542
440,rabigh,22.7986,39.0349,26.18,69,0,3.2,SA,1701493543
441,mount pearl,47.5166,-52.7813,5.19,95,100,7.2,CA,1701493536
442,pangkalpinang,-2.1333,106.1333,30.96,61,86,0.84,ID,1701493544
443,machico,32.7,-16.7667,17.62,73,40,3.09,PT,1701493545
444,buraydah,26.326,43.975,15.25,40,5,5.91,SA,1701493408
445,constitucion,-35.3333,-72.4167,12.63,81,18,3.19,CL,1701493257
446,rongelap,11.1635,166.8941,27.47,78,100,9.54,MH,1701493547
447,campo gallo,-26.5833,-62.85,27.25,67,100,1.64,AR,1701493548
448,hassi messaoud,31.6804,6.0729,10.92,30,0,1.54,DZ,1701493549
449,hobyo,5.3505,48.5268,26.51,68,78,9.69,SO,1701493550
450,bahia blanca,-38.7196,-62.2724,19.34,70,2,2.68,AR,1701493550
451,selfoss,63.9331,-20.9971,-6.09,63,1,4.02,IS,1701493551
452,kansas city,39.0997,-94.5786,3.2,89,100,0.0,US,1701492743
453,murun-kuren,49.6342,100.1625,-7.85,58,100,1.16,MN,1701493552
454,tabuk,17.4189,121.4443,27.51,75,50,2.4,PH,1701493553
455,bar-sur-aube,48.25,4.5833,-0.65,94,40,2.5,FR,1701493554
456,san andres,12.5847,-81.7006,29.01,74,20,5.14,CO,1701493390
457,raja,8.4596,25.678,26.31,44,59,0.96,SS,1701493329
458,port isabel,26.0734,-97.2086,20.6,92,100,4.12,US,1701493556
459,ancud,-41.8697,-73.8203,7.07,72,26,4.65,CL,1701493557
460,inhambane,-23.865,35.3833,22.99,68,20,0.0,MZ,1701493557
461,sevastopol,44.6,33.5333,12.78,61,67,2.68,UA,1701493558
462,akureyri,65.6835,-18.0878,-5.04,100,100,1.03,IS,1701493559
463,bhamo,24.2667,97.2333,25.68,50,99,0.64,MM,1701493560
464,guarapari,-20.6667,-40.4975,22.72,97,90,1.37,BR,1701493410
465,marsa alam,25.0757,34.8918,21.69,69,0,5.34,EG,1701493561
466,masuguru,-11.3667,38.4167,25.25,82,98,2.77,TZ,1701493562
467,sodra sandby,56.5667,16.6167,-1.73,90,94,4.33,SE,1701493563
468,wafangdian,39.6183,122.0081,2.74,34,1,6.5,CN,1701493564
469,hamilton,39.1834,-84.5333,12.77,93,100,3.6,US,1701493257
470,bulnes,-36.7423,-72.2985,13.42,94,62,1.56,CL,1701493566
471,corner brook,48.9667,-57.9484,0.09,92,99,1.98,CA,1701493567
472,qina,26.1642,32.7267,16.95,45,0,1.5,EG,1701493568
473,madalena,41.2162,-8.3345,8.03,98,5,0.7,PT,1701493570
474,soe,-9.8607,124.284,29.97,49,60,5.03,ID,1701493571
475,cambria,35.5641,-121.0808,12.08,80,11,1.34,US,1701493572
476,san antonio de pale,-1.4014,5.6325,26.15,82,100,2.08,GQ,1701493573
477,zheleznodorozhnyy,55.7503,38.0042,-4.25,99,75,2.07,RU,1701493574
478,port moresby,-9.4431,147.1797,29.68,70,75,2.57,PG,1701493446
479,thabazimbi,-24.5917,27.4116,22.53,32,0,2.96,ZA,1701493576
480,gradiska,45.1411,17.25,20.14,52,100,4.44,BA,1701493577
481,ulladulla,-35.35,150.4667,20.23,80,73,2.49,AU,1701493578
482,pudozh,61.8099,36.5345,-16.7,98,84,1.34,RU,1701493579
483,brokopondo,4.75,-55.1667,24.18,90,79,3.67,SR,1701493580
484,lundazi,-12.2929,33.1782,20.42,82,80,3.0,ZM,1701493581
485,usinsk,65.9939,57.5281,-11.07,96,100,3.13,RU,1701493582
486,tippi,7.2,35.45,21.67,66,45,1.09,ET,1701493583
487,labasa,-16.4167,179.3833,29.4,70,98,3.94,FJ,1701493584
488,balqash,46.8481,74.995,-1.67,80,40,5.0,KZ,1701493585
489,broken hill,-31.95,141.4333,26.71,20,0,6.76,AU,1701493583
490,san luis,-33.295,-66.3356,20.14,49,0,5.44,AR,1701493588
491,cabedelo,-6.9811,-34.8339,25.37,80,73,4.64,BR,1701493309
492,laojunmiao,39.8333,97.7333,1.39,16,99,1.81,CN,1701493589
493,nehe,48.4833,124.8333,-11.53,81,11,2.77,CN,1701493527
494,el calafate,-50.3408,-72.2768,3.53,77,27,5.08,AR,1701493591
495,mabaruma,8.2,-59.7833,22.68,97,14,1.18,GY,1701493592
496,palmer,42.1584,-72.3287,7.7,83,100,2.06,US,1701493381
497,bishkul,54.7803,69.1033,-4.81,93,75,3.0,KZ,1701493593
498,hermansverk,61.1846,6.8502,-4.75,93,100,1.03,NO,1701493594
499,jaunpiebalga,57.1833,26.05,-8.75,100,100,1.07,LV,1701493595
500,tommot,58.9564,126.2925,-19.6,92,100,4.49,RU,1701493596
501,pionerskiy,54.9508,20.2275,0.08,76,100,5.44,RU,1701493597
502,merizo village,13.2658,144.6691,29.43,86,72,9.36,GU,1701493352
503,wenshang,35.7275,116.4961,9.37,25,0,2.51,CN,1701493599
504,eyl,7.9803,49.8164,26.26,59,40,11.16,SO,1701493600
505,brookings,44.3114,-96.7984,-3.82,76,75,3.6,US,1701493320
506,gadzhiyevo,69.2551,33.3362,-14.38,99,93,2.55,RU,1701493602
507,linhares,-19.3911,-40.0722,22.57,94,88,1.53,BR,1701493602
508,poronaysk,49.2167,143.1167,-7.56,73,25,1.15,RU,1701493603
509,nieuw amsterdam,5.8833,-55.0833,25.09,89,90,3.28,SR,1701493604
510,catio,11.2833,-15.25,24.55,73,83,1.62,GW,1701493605
511,megion,61.0296,76.1136,-14.99,99,57,1.92,RU,1701493605
512,pierre,44.3683,-100.351,-2.3,75,0,7.72,US,1701493400
513,flying fish cove,-10.4217,105.6791,28.82,65,75,5.66,CX,1701493607
514,puerto cabello,10.4731,-68.0125,25.83,85,30,3.8,VE,1701493608
515,ebon,4.582,168.6964,27.84,81,94,7.53,MH,1701493609
516,nagai,38.1036,140.035,3.22,96,99,1.35,JP,1701493609
517,holualoa,19.6228,-155.9522,22.15,98,49,0.45,US,1701493610
518,san matias,-16.3667,-58.4,25.46,70,37,1.96,BO,1701493611
519,sokoni,-6.4333,39.55,27.37,80,65,2.56,TZ,1701493611
520,zaozersk,69.4005,32.4476,-12.45,98,89,1.19,RU,1701493612
521,kerikeri,-35.2268,173.9474,21.06,74,88,1.34,NZ,1701493348
522,tyukalinsk,55.8732,72.1967,-9.72,95,98,3.33,RU,1701493614
523,newnham,-41.3833,147.1333,22.53,37,100,3.6,AU,1701493614
524,whistler,50.1164,-122.9695,-0.25,95,93,2.14,CA,1701493362
525,pindushi,62.9152,34.58,-13.55,97,100,1.5,RU,1701493616
526,bonthe,7.5264,-12.505,26.52,84,100,1.15,SL,1701493616
527,formosa,-26.1775,-58.1781,29.99,74,0,2.57,AR,1701493387
528,barcelos,41.5388,-8.6151,8.8,90,9,1.37,PT,1701493406
529,san fernando,15.0286,120.6898,31.77,54,68,8.06,PH,1701493618
530,altpinar,39.2042,32.7478,7.34,77,29,2.24,TR,1701493619
531,villa vasquez,19.7411,-71.4464,24.05,91,8,3.09,DO,1701493620
532,carloforte,39.145,8.3058,16.74,75,100,10.19,IT,1701493621
533,lethem,3.3803,-59.7968,27.47,59,58,4.39,GY,1701493621
534,maxixe,-23.8597,35.3472,24.97,51,31,2.1,MZ,1701493622
535,namibe,-15.1961,12.1522,22.29,78,97,2.42,AO,1701493623
536,hirara,24.8,125.2833,19.95,78,100,8.86,JP,1701493624
