City_ID,City,Lat,Lng,Max Temp,Humidity,Cloudiness,Wind Speed,Country,Date
0,puerto real,36.5282,-6.1901,14.23,88,100,6.17,ES,1701832123
1,albany,42.6001,-73.9662,0.37,88,100,1.3,US,1701831950
2,talnakh,69.4865,88.3972,-32.51,78,7,0.79,RU,1701832124
3,waitangi,-43.9535,-176.5597,14.34,80,100,3.58,NZ,1701832125
4,yellowknife,62.456,-114.3525,-4.77,100,100,1.79,CA,1701832126
5,port-aux-francais,-49.35,70.2167,6.57,96,100,11.78,TF,1701832126
6,blackmans bay,-43.0167,147.3167,21.4,36,6,1.36,AU,1701832127
7,port elizabeth,-33.918,25.5701,17.4,76,86,3.13,ZA,1701832128
8,afaahiti,-17.75,-149.2833,24.93,84,100,5.44,PF,1701832129
9,inda silase,14.1031,38.2829,15.89,54,59,0.88,ET,1701832129
10,ilulissat,69.2167,-51.1,-10.99,52,6,3.6,GL,1701832130
11,kavarna,43.4333,28.3333,2.6,93,100,3.92,BG,1701832131
12,akureyri,65.6835,-18.0878,-9.23,87,10,2.39,IS,1701832131
13,puerto natales,-51.7236,-72.4875,4.07,74,36,3.42,CL,1701832132
14,nadi,-17.8,177.4167,27.0,78,75,1.54,FJ,1701832133
15,hammerfest,70.6634,23.6821,-8.75,73,74,5.66,NO,1701832133
16,jamestown,42.097,-79.2353,0.77,99,100,2.06,US,1701832134
17,bethel,41.3712,-73.414,3.2,70,100,0.0,US,1701832135
18,bredasdorp,-34.5322,20.0403,16.68,81,70,6.49,ZA,1701832135
19,thompson,55.7435,-97.8558,-5.82,94,100,3.63,CA,1701832137
20,ushuaia,-54.8,-68.3,0.79,97,49,3.04,AR,1701832137
21,adamstown,-25.066,-130.1015,22.77,83,100,6.35,PN,1701832138
22,grytviken,-54.2811,-36.5092,2.36,84,100,7.99,GS,1701831965
23,tazovsky,67.4667,78.7,-36.51,99,70,2.42,RU,1701832139
24,piton saint-leu,-21.2196,55.3151,23.56,73,0,2.57,RE,1701832140
25,saynshand,44.8824,110.1163,-7.6,69,100,4.03,MN,1701832141
26,port mathurin,-19.6833,63.4167,25.87,80,44,5.1,MU,1701832142
27,invercargill,-46.4,168.35,18.07,51,76,0.43,NZ,1701832142
28,puerto ayora,-0.7393,-90.3518,24.75,94,53,0.89,EC,1701832038
29,edinburgh of the seven seas,-37.0676,-12.3116,13.46,68,94,10.32,SH,1701831977
30,badger,64.8,-147.5333,-17.79,83,100,1.54,US,1701832145
31,angra do heroismo,38.65,-27.2167,19.51,95,98,9.83,PT,1701832145
32,sao joao da barra,-21.6403,-41.0511,23.76,92,11,3.56,BR,1701831882
33,shingu,33.7333,135.9833,16.07,65,22,2.25,JP,1701832147
34,klyuchi,52.2667,79.1667,3.4,75,100,9.11,RU,1701832148
35,verkhneural'sk,53.8769,59.2106,-14.05,83,98,4.31,RU,1701832149
36,humberto de campos,-2.5983,-43.4611,26.17,87,48,2.9,BR,1701832149
37,anadyr,64.75,177.4833,-19.72,83,100,7.0,RU,1701831992
38,kenora,49.8167,-94.4337,-4.46,93,100,4.63,CA,1701832151
39,piti village,13.4626,144.6933,31.49,73,75,5.66,GU,1701832151
40,avarua,-21.2078,-159.775,27.03,74,75,6.69,CK,1701832152
41,pathein,16.7833,94.7333,27.85,65,96,4.59,MM,1701832094
42,xinzhi,36.4989,111.7047,7.54,30,0,2.9,CN,1701832154
43,borogontsy,62.6683,131.1683,-43.3,98,65,1.52,RU,1701832155
44,margaret river,-33.95,115.0667,22.48,48,3,5.54,AU,1701831870
45,ta`u,-14.2336,-169.5144,27.61,80,59,7.47,AS,1701832156
46,dunedin,-45.8742,170.5036,14.33,81,90,2.68,NZ,1701832157
47,cooper's town,26.8667,-77.5167,23.7,81,100,1.64,BS,1701832158
48,coihueco,-36.6167,-71.8333,11.41,87,0,2.06,CL,1701832159
49,budva,42.2864,18.84,11.09,97,100,2.57,ME,1701832160
50,mogocha,53.7333,119.7667,-18.69,74,100,4.77,RU,1701832160
51,keningau,5.3378,116.1602,29.09,74,82,1.01,MY,1701832044
52,carbonear,47.7332,-53.2148,-0.32,89,100,2.26,CA,1701832162
53,alakurtti,66.9672,30.3491,-17.76,100,96,1.04,RU,1701832163
54,andergrove,-21.0833,149.1833,32.03,63,44,7.59,AU,1701832164
55,san antonio,29.4241,-98.4936,15.98,67,0,0.0,US,1701831693
56,ribeira grande,38.5167,-28.7,19.32,94,100,11.62,PT,1701832165
57,quirinopolis,-18.4483,-50.4517,22.25,84,74,0.75,BR,1701831903
58,lebu,-37.6167,-73.65,12.37,87,85,4.8,CL,1701832166
59,panagar,23.3,79.9833,20.69,88,75,3.09,IN,1701832167
60,nizhneangarsk,55.7833,109.55,-23.89,79,82,3.58,RU,1701832168
61,iqaluit,63.7506,-68.5145,-14.61,84,67,1.34,CA,1701832039
62,shush,32.1942,48.2436,16.17,34,76,0.14,IR,1701832169
63,olonkinbyen,70.9221,-8.7187,-2.64,78,97,6.79,SJ,1701832056
64,stanley,54.868,-1.6985,-0.82,96,8,1.03,GB,1701832171
65,whangarei,-35.7317,174.3239,20.45,83,67,2.15,NZ,1701832172
66,lompoc,34.6391,-120.4579,17.08,82,0,1.54,US,1701832083
67,hermanus,-34.4187,19.2345,18.09,74,90,9.29,ZA,1701832173
68,horishni plavni,49.0097,33.6455,-1.73,70,100,3.6,UA,1701832174
69,tiksi,71.6872,128.8694,-19.5,92,100,6.65,RU,1701832175
70,lihue,21.9789,-159.3672,28.58,88,100,8.23,US,1701832176
71,gadzhiyevo,69.2551,33.3362,-10.51,83,100,5.1,RU,1701832099
72,new norfolk,-42.7826,147.0587,22.06,28,6,3.94,AU,1701832177
73,egilsstadir,65.2653,-14.3948,-8.54,96,61,1.48,IS,1701832178
74,vila franca do campo,37.7167,-25.4333,19.23,99,99,8.78,PT,1701832179
75,papatowai,-46.5619,169.4708,17.78,57,99,3.49,NZ,1701831965
76,mochudi,-24.4167,26.15,22.52,41,66,4.92,BW,1701832180
77,hengchun,22.0042,120.7439,25.14,67,44,1.94,TW,1701832181
78,nago,26.5881,127.9761,23.47,53,15,1.07,JP,1701832005
79,callao,-12.0667,-77.15,21.51,77,40,7.2,PE,1701832182
80,west island,-12.1568,96.8225,27.99,83,75,5.66,CC,1701832183
81,college,64.8569,-147.8028,-17.74,81,100,1.54,US,1701832183
82,sitka,57.0531,-135.33,6.94,76,100,6.17,US,1701832184
83,touros,-5.1989,-35.4608,26.34,78,5,7.24,BR,1701832095
84,nantucket,41.2835,-70.0995,3.41,76,100,3.09,US,1701831955
85,whitehorse,60.7161,-135.0538,-7.0,94,100,2.93,CA,1701832187
86,sarina,-21.4333,149.2167,31.82,36,35,6.31,AU,1701832187
87,sechenovo,55.2244,45.8906,-20.06,100,93,2.36,RU,1701832188
88,remire-montjoly,4.9167,-52.2667,25.02,94,0,0.0,GF,1701832189
89,port hueneme,34.1478,-119.1951,21.18,57,0,2.06,US,1701832189
90,laascaanood,8.4774,47.3597,18.93,55,24,3.05,SO,1701832190
91,ust-nera,64.5667,143.2,-45.34,98,74,2.14,RU,1701832191
92,ancud,-41.8697,-73.8203,10.15,91,0,0.86,CL,1701832191
93,natal,-5.795,-35.2094,26.36,83,20,3.6,BR,1701832059
94,hilo,19.7297,-155.09,25.06,78,20,1.54,US,1701832122
95,leskovac,42.9981,21.9461,1.77,88,100,0.82,RS,1701832193
96,happy valley-goose bay,53.3168,-60.3315,-8.83,73,100,5.14,CA,1701832181
97,mount isa,-20.7333,139.5,38.87,29,14,5.66,AU,1701832195
98,gowurdak,37.8124,66.0466,11.62,29,0,2.48,TM,1701832195
99,christchurch,-43.5333,172.6333,23.63,67,99,8.23,NZ,1701831538
100,port augusta,-32.5,137.7667,35.47,19,54,5.84,AU,1701832197
101,fale old settlement,-9.3852,-171.2468,28.99,74,100,2.98,TK,1701832197
102,hawaiian paradise park,19.5933,-154.9731,24.94,83,20,1.54,US,1701832198
103,pizarro,4.9533,-77.366,25.51,91,8,2.57,CO,1701832199
104,rustaq,23.3908,57.4244,18.13,37,0,0.22,OM,1701832199
105,salalah,17.0151,54.0924,22.05,53,0,2.57,OM,1701832200
106,isafjordur,66.0755,-23.124,-2.73,84,27,3.11,IS,1701832201
107,hasaki,35.7333,140.8333,16.27,74,67,7.07,JP,1701832183
108,naze,28.3667,129.4833,18.61,52,8,1.89,JP,1701832202
109,ingeniero jacobacci,-41.3427,-69.5448,18.13,38,11,4.47,AR,1701832203
110,haiku-pauwela,20.9219,-156.3051,25.01,70,20,11.32,US,1701832097
111,balabac,7.9868,117.0645,29.39,71,41,1.88,PH,1701832205
112,nenjiang,49.1833,125.2167,-11.86,70,45,6.06,CN,1701832206
113,shenandoah,30.4013,-91.0009,12.18,82,100,2.15,US,1701832207
114,udachny,66.4167,112.4,-26.34,97,100,3.19,RU,1701832207
115,wailua homesteads,22.0669,-159.378,28.24,89,100,8.23,US,1701832208
116,iskateley,67.6803,53.1512,-32.77,99,35,1.79,RU,1701831999
117,dudinka,69.4058,86.1778,-36.29,98,21,2.24,RU,1701832209
118,baiti,13.745,-14.7482,24.61,21,5,3.26,SN,1701832210
119,vorgashor,67.5833,63.95,-30.21,95,22,1.26,RU,1701832211
120,pacasmayo,-7.4006,-79.5714,19.97,84,97,5.81,PE,1701832212
121,timbuktu,16.7735,-3.0074,21.34,12,0,3.72,ML,1701832212
122,tuy hoa,13.0833,109.3,26.65,84,62,3.73,VN,1701832213
123,kingston,17.997,-76.7936,26.53,84,20,2.06,JM,1701832214
124,vernon,50.2581,-119.2691,7.56,90,100,0.89,CA,1701832215
125,vilhena,-12.7406,-60.1458,20.68,95,100,0.7,BR,1701832215
126,queenstown,-31.8976,26.8753,12.44,90,100,4.38,ZA,1701831727
127,ataq,14.5377,46.8319,13.88,43,7,1.21,YE,1701832217
128,kavieng,-2.5744,150.7967,28.63,73,100,3.6,PG,1701832218
129,sabang,5.8933,95.3214,26.25,87,100,5.16,ID,1701832219
130,bilibino,68.0546,166.4372,-30.66,99,100,1.88,RU,1701832219
131,sao jose da coroa grande,-8.8978,-35.1478,25.23,77,0,4.68,BR,1701832220
132,kodinsk,58.6881,99.1844,-29.76,96,18,2.27,RU,1701832221
133,dryden,49.7833,-92.7503,-7.12,95,81,1.2,CA,1701832174
134,yinchuan,38.4681,106.2731,4.31,27,0,1.68,CN,1701832171
135,xining,36.6167,101.7667,1.4,22,0,0.61,CN,1701832223
136,cadale,2.7603,46.3222,26.03,76,100,6.63,SO,1701832224
137,simanggang,1.2472,111.4528,30.27,67,100,0.86,MY,1701832162
138,hanzhong,33.0728,107.0303,10.64,37,0,0.85,CN,1701832225
139,korla,41.7597,86.1469,1.1,47,14,2.46,CN,1701832226
140,tolanaro,-25.0319,46.9987,22.65,84,1,3.21,MG,1701832108
141,san patricio,28.017,-97.5169,18.92,71,100,2.91,US,1701832227
142,boende,-0.2167,20.8667,20.78,98,67,1.1,CD,1701832228
143,port macquarie,-31.4333,152.9167,26.32,65,5,4.97,AU,1701832229
144,khandyga,62.6667,135.6,-46.14,97,55,0.26,RU,1701832230
145,petropavlovsk-kamchatsky,53.0452,158.6483,-3.67,87,0,7.6,RU,1701832205
146,robore,-18.3333,-59.75,23.1,95,87,1.92,BO,1701832231
147,wanning,18.8003,110.3967,24.51,82,100,3.09,CN,1701832232
148,codrington,-38.2667,141.9667,18.54,48,21,5.74,AU,1701832189
149,thunder bay,48.4001,-89.3168,-4.8,86,15,2.23,CA,1701832233
150,mahina,-17.5065,-149.489,25.87,89,100,2.57,PF,1701832234
151,lazaro cardenas,17.9583,-102.2,26.63,67,100,1.54,MX,1701832235
152,cidreira,-30.1811,-50.2056,21.36,91,64,8.65,BR,1701832014
153,pemba,-12.974,40.5178,26.21,81,35,1.21,MZ,1701832168
154,utrik,11.2278,169.8474,27.79,75,78,8.66,MH,1701832197
155,vilyuchinsk,52.9306,158.4028,-2.85,70,23,3.57,RU,1701832237
156,watford city,47.8022,-103.2832,3.92,81,0,3.09,US,1701832238
157,dongola,19.1667,30.4833,18.95,18,58,4.93,SD,1701832239
158,bairnsdale,-37.8333,147.6167,21.14,63,34,1.79,AU,1701832222
159,qaqortoq,60.7167,-46.0333,0.51,65,100,2.19,GL,1701832240
160,weno,7.4515,151.8468,28.97,84,100,3.09,FM,1701832241
161,tralee,52.2704,-9.7026,7.75,95,100,4.88,IE,1701832241
162,puerto leguizamo,-0.1934,-74.7819,24.96,77,79,0.98,CO,1701832242
163,san carlos de bariloche,-41.1456,-71.3082,10.62,81,0,2.58,AR,1701832174
164,beau vallon,-20.4189,57.6953,26.23,88,40,0.0,MU,1701832243
165,namie,37.4833,141.0,12.77,86,100,2.47,JP,1701832244
166,barquisimeto,10.0739,-69.3228,20.57,90,31,0.91,VE,1701831955
167,mbuji-mayi,-6.15,23.6,19.9,95,99,0.37,CD,1701832245
168,richards bay,-28.783,32.0377,20.04,84,100,2.32,ZA,1701832246
169,guerrero negro,27.9769,-114.0611,20.74,44,100,3.89,MX,1701832248
170,zhangatas,43.5667,69.75,8.44,50,90,11.57,KZ,1701832248
171,carnarvon,-24.8667,113.6333,27.68,60,1,9.45,AU,1701832249
172,nova sintra,14.8667,-24.7167,21.57,72,100,8.61,CV,1701832184
173,makarov,48.6333,142.8,3.42,76,100,5.67,RU,1701832250
174,piracuruca,-3.9281,-41.7092,25.82,78,12,1.78,BR,1701832251
175,enewetak,11.3474,162.3373,28.08,72,88,7.98,MH,1701832252
176,hamilton,39.1834,-84.5333,4.99,92,100,4.12,US,1701832023
177,piranshahr,36.701,45.1413,6.77,71,68,1.64,IR,1701832253
178,lata,40.1629,-8.3327,4.95,90,63,1.35,PT,1701832217
179,axim,4.8699,-2.2405,26.19,81,16,2.64,GH,1701832192
180,lancaster,40.2504,-76.2499,3.72,84,100,0.0,US,1701832229
181,marsh harbour,26.5412,-77.0636,24.11,81,100,0.76,BS,1701832257
182,tura,25.5198,90.2201,22.6,55,83,0.65,IN,1701832070
183,labytnangi,66.6572,66.4183,-33.69,99,70,0.18,RU,1701832197
184,cheddar,51.2754,-2.7766,5.34,89,98,1.03,GB,1701832260
185,konosha,60.9736,40.257,-17.57,99,92,0.67,RU,1701832262
186,kimberley,-28.7323,24.7623,19.27,49,77,5.36,ZA,1701832264
187,san luis de la loma,17.2706,-100.8939,26.27,77,100,0.83,MX,1701832264
188,george town,5.4112,100.3354,30.96,66,20,3.6,MY,1701832205
189,manaquiri,-3.3167,-60.35,25.27,92,94,1.5,BR,1701832067
190,longyearbyen,78.2186,15.6401,-4.09,68,20,9.26,SJ,1701832185
191,cabo san lucas,22.8909,-109.9124,24.31,72,40,2.06,MX,1701832215
192,nynashamn,58.9034,17.9479,-12.13,97,92,0.73,SE,1701832268
193,mount pearl,47.5166,-52.7813,-1.03,93,100,0.45,CA,1701832269
194,hobbs,32.7026,-103.136,9.33,41,0,2.06,US,1701832167
195,polillo,14.7122,121.9392,28.04,76,100,3.14,PH,1701832270
196,olyokminsk,60.3736,120.4264,-39.79,94,71,0.39,RU,1701832271
197,akrehamn,59.2667,5.1833,1.9,74,100,4.63,NO,1701832273
198,penticton,49.4806,-119.5858,6.9,100,100,1.79,CA,1701832274
199,hithadhoo,-0.6,73.0833,27.33,81,98,4.48,MV,1701832275
200,salinas,36.6777,-121.6555,16.7,76,40,1.54,US,1701832227
201,manta,-0.95,-80.7333,24.88,83,100,4.12,EC,1701832277
202,san antonio de pale,-1.4014,5.6325,25.94,82,100,2.45,GQ,1701832241
203,svetlyy,54.675,20.1347,-6.13,93,97,5.28,RU,1701832012
204,ubatuba,-23.4339,-45.0711,23.76,97,100,1.27,BR,1701832280
205,preobrazheniye,42.9019,133.9064,2.56,83,100,0.47,RU,1701832281
206,inverness,57.4791,-4.224,-0.67,95,40,0.45,GB,1701832282
207,san javier,37.8063,-0.8374,12.85,73,100,3.13,ES,1701832283
208,uturoa,-16.7333,-151.4333,23.89,85,100,2.61,PF,1701832284
209,nova vicosa,-17.8919,-39.3719,22.16,97,1,1.25,BR,1701832284
210,pico truncado,-46.7949,-67.9573,7.27,68,3,7.95,AR,1701832285
211,znamenskoye,57.1281,73.8282,-16.93,95,100,4.24,RU,1701832286
212,muisne,0.6,-80.0333,25.62,82,100,5.59,EC,1701832287
213,minas de marcona,-15.2119,-75.1103,18.12,69,86,0.52,PE,1701832287
214,rawatsar,29.2833,74.3833,16.47,44,0,1.7,IN,1701832288
215,margate,51.3813,1.3862,4.27,92,75,1.79,GB,1701832289
216,nouadhibou,20.931,-17.0347,19.94,87,100,7.38,MR,1701832290
217,inari,68.906,27.0288,-14.89,97,99,0.65,FI,1701832290
218,ola,59.5833,151.2833,-22.37,66,91,3.12,RU,1701832292
219,sola,-13.8833,167.55,26.55,81,100,2.5,VU,1701832293
220,ningde,26.6617,119.5228,20.23,64,99,1.02,CN,1701832294
221,puerto deseado,-47.7503,-65.8938,8.15,52,0,4.45,AR,1701832253
222,shimoda,34.6667,138.95,15.06,57,5,1.73,JP,1701832296
223,phulbani,20.4667,84.2333,17.28,95,100,1.79,IN,1701832297
224,adre,13.4667,22.2,19.22,17,100,5.28,TD,1701832298
225,bechar,31.6167,-2.2167,11.95,46,64,2.61,DZ,1701832035
226,tosontsengel,48.7567,98.2839,-9.19,80,100,2.54,MN,1701832300
227,moose jaw,50.4001,-105.5344,5.63,86,100,4.7,CA,1701832301
228,kokubunji,35.7022,139.4756,16.28,53,0,3.09,JP,1701832302
229,pergamino,-33.89,-60.5736,18.43,97,100,3.28,AR,1701832303
230,al bayda',32.7627,21.7551,15.05,62,14,10.9,LY,1701832303
231,mitu,1.1983,-70.1733,22.74,99,91,0.96,CO,1701832304
232,takab,36.4009,47.1133,2.45,60,0,1.21,IR,1701832041
233,taltal,-25.4,-70.4833,16.68,80,0,1.83,CL,1701832305
234,mount gambier,-37.8333,140.7667,21.05,33,76,3.27,AU,1701832243
235,ciudad lazaro cardenas,17.9583,-102.2,26.63,67,100,1.54,MX,1701832235
236,port alfred,-33.5906,26.891,17.88,80,99,0.89,ZA,1701832135
237,aldan,58.6031,125.3894,-34.03,95,100,2.01,RU,1701832308
238,hadibu,12.65,54.0333,25.92,58,66,8.71,YE,1701832309
239,saipan,15.1355,145.701,30.39,74,40,5.14,MP,1701832251
240,saldanha,-33.0117,17.9442,15.5,79,0,4.09,ZA,1701832132
241,susuman,62.7833,148.1667,-49.45,99,55,0.45,RU,1701832312
242,georgetown,5.4112,100.3354,30.96,66,20,3.6,MY,1701832313
243,conception bay south,47.4999,-52.9981,-0.7,94,100,2.65,CA,1701832314
244,bojnurd,37.4747,57.329,6.29,60,1,1.91,IR,1701832315
245,buncrana,55.1333,-7.45,4.73,86,99,6.77,IE,1701832316
246,sterlitamak,53.6246,55.9502,-13.1,90,95,4.62,RU,1701832317
247,vigan,17.5747,120.3869,29.4,95,0,3.53,PH,1701832318
248,sept-iles,50.2001,-66.3821,-9.97,73,14,0.89,CA,1701832019
249,neelankarai,12.9455,80.2575,27.03,94,75,2.06,IN,1701832320
250,mahajanga,-15.7167,46.3167,28.05,77,90,2.46,MG,1701832321
251,punta arenas,-53.15,-70.9167,7.06,57,0,20.58,CL,1701832321
252,faya-largeau,17.9257,19.1043,19.7,33,55,8.9,TD,1701832322
253,st. john's,47.5649,-52.7093,-0.57,93,100,0.89,CA,1701832148
254,fada,9.5667,8.3,19.89,22,2,2.71,NG,1701832324
255,port douglas,-16.4833,145.4667,28.98,65,24,6.66,AU,1701832051
256,saint-philippe,-21.3585,55.7679,23.95,76,6,2.19,RE,1701832205
257,nemuro,43.3236,145.575,8.03,83,76,2.26,JP,1701832178
258,punta del este,-34.9667,-54.95,19.06,94,100,8.23,UY,1701832327
259,oyo,7.85,3.9333,22.78,90,17,1.78,NG,1701832327
260,santa luzia,-19.7697,-43.8514,25.43,72,14,1.58,BR,1701832210
261,constantia,44.1833,28.65,4.38,90,100,4.17,RO,1701832329
262,luganville,-15.5333,167.1667,26.22,90,100,1.26,VU,1701832330
263,island harbour,50.724,-1.2758,4.4,94,9,2.36,GB,1701832331
264,al bawiti,28.3492,28.8659,13.8,74,3,3.8,EG,1701832332
265,batticaloa,7.7102,81.6924,27.57,81,65,1.25,LK,1701832332
266,walvis bay,-22.9575,14.5053,16.16,90,60,1.06,NA,1701832333
267,ngurore,9.2833,12.2333,22.76,20,1,1.17,NG,1701832334
268,daigo,36.7667,140.35,10.62,76,99,2.6,JP,1701832335
269,viedma,-40.8135,-62.9967,17.2,71,65,7.69,AR,1701832336
270,kosum phisai,16.2486,103.0674,29.81,56,54,1.96,TH,1701832337
271,bonthe,7.5264,-12.505,26.35,84,4,2.41,SL,1701832337
272,taoudenni,22.6783,-3.9836,19.03,12,73,2.91,ML,1701832338
273,selfoss,63.9331,-20.9971,-3.95,74,19,4.16,IS,1701832289
274,launceston,-41.45,147.1667,21.86,37,100,3.6,AU,1701832340
275,barra de santo antonio,-9.4047,-35.5072,23.6,91,4,0.75,BR,1701832305
276,ad dilam,23.9915,47.1627,12.23,27,0,0.84,SA,1701832341
277,mount darwin,-16.7725,31.5838,19.4,57,14,1.51,ZW,1701832342
278,hazelwood,38.7714,-90.3709,4.32,80,100,5.66,US,1701832343
279,muheza,-5.1667,38.7833,22.48,94,38,0.96,TZ,1701832343
280,howrah,22.5892,88.3103,23.0,78,75,2.57,IN,1701832344
281,rongelap,11.1635,166.8941,27.77,79,49,9.16,MH,1701832345
282,miyako,39.6367,141.9525,12.9,78,100,1.25,JP,1701832346
283,geraldton,-28.7667,114.6,26.23,57,17,8.23,AU,1701832093
284,tarhuna,32.435,13.6332,12.34,55,100,2.94,LY,1701832348
285,isla del bosque,22.7333,-105.85,25.17,70,19,6.22,MX,1701832349
286,dodge city,37.7528,-100.0171,6.25,60,0,4.63,US,1701832349
287,paradip garh,20.3167,86.6167,21.79,80,100,5.68,IN,1701832351
288,arraial do cabo,-22.9661,-42.0278,23.91,94,51,6.16,BR,1701832165
289,jalpa de mendez,18.1333,-93.0833,24.45,94,70,2.98,MX,1701832353
290,tadine,-21.55,167.8833,26.44,67,85,7.05,NC,1701832278
291,nabire,-3.3667,135.4833,30.65,62,12,2.52,ID,1701832078
292,vadso,70.0744,29.7487,-7.91,79,75,5.14,NO,1701832312
293,general roca,-39.0333,-67.5833,22.01,56,100,2.48,AR,1701832356
294,sur,22.5667,59.5289,25.12,41,0,3.83,OM,1701832356
295,hancheng,32.5186,112.3522,15.77,17,0,4.96,CN,1701832357
296,tremonton,41.7119,-112.1655,6.0,80,0,0.89,US,1701832358
297,iwata,34.7,137.85,16.68,39,0,1.34,JP,1701832125
298,chonchi,-42.6128,-73.8092,12.56,96,3,1.43,CL,1701832359
299,nybro,56.7446,15.9071,0.45,83,100,3.82,SE,1701832360
300,colonia,50.9333,6.95,2.81,90,75,5.66,DE,1701832360
301,ebon,4.582,168.6964,27.97,80,91,8.82,MH,1701832361
302,quellon,-43.1167,-73.6167,8.22,95,1,2.71,CL,1701832362
303,yerofey pavlovich,53.9667,121.9667,-20.14,76,100,3.74,RU,1701832362
304,burang,30.25,81.1667,-10.73,77,1,1.26,CN,1701832340
305,coahuayana de hidalgo,18.7,-103.6583,23.8,68,100,1.84,MX,1701832364
306,sumenep,-7.0167,113.8667,31.33,63,80,3.05,ID,1701832337
307,aitape,-3.1374,142.3475,28.27,77,100,4.99,PG,1701832365
308,sao vicente,-23.9631,-46.3919,26.82,26,97,1.48,BR,1701832366
309,astrakhan,46.3497,48.0408,-1.07,79,75,4.02,RU,1701832366
310,berezovskiy,55.6,86.2,-9.77,94,100,3.88,RU,1701832367
311,mtwara,-10.2667,40.1833,24.17,92,32,0.85,TZ,1701832368
312,bereeda,11.8704,51.0579,25.78,67,29,5.9,SO,1701832368
313,mudon,16.2578,97.7164,28.32,72,64,1.74,MM,1701832094
314,meadow lakes,61.6247,-149.6011,-2.38,78,100,0.0,US,1701832193
315,alofi,-19.0595,-169.9187,28.94,70,75,6.17,NU,1701832371
316,dzerzhinskoye,56.8344,95.2283,-22.92,90,100,3.87,RU,1701832371
317,vila velha,-20.3297,-40.2925,25.97,88,75,4.12,BR,1701832372
318,borgarnes,64.5383,-21.9206,-5.36,75,40,2.91,IS,1701832373
319,tevriz,57.509,72.4042,-17.38,96,100,3.83,RU,1701832243
320,ugoofaaru,5.6667,73.0,28.19,73,100,0.72,MV,1701832374
321,polyarnyy,69.1989,33.4478,-11.1,86,100,4.34,RU,1701832375
322,kandi,11.1342,2.9386,23.17,22,4,2.14,BJ,1701832375
323,newman,37.3138,-121.0208,14.05,62,97,1.08,US,1701832376
324,kone,-21.0595,164.8658,30.67,49,100,4.24,NC,1701832377
325,nampula,-15.1165,39.2666,21.9,82,99,1.12,MZ,1701832377
326,shar'ya,58.3686,45.5144,-16.12,97,30,1.79,RU,1701832378
327,la villa del rosario,10.3258,-72.3134,25.78,78,16,4.94,VE,1701832379
328,bawku,11.0616,-0.2417,24.97,19,6,3.23,GH,1701832379
329,livani,56.3543,26.1758,-9.08,97,100,1.23,LV,1701832380
330,coquimbo,-29.9533,-71.3436,13.85,82,0,2.06,CL,1701831584
331,sultanah,24.4926,39.5857,18.25,27,20,2.06,SA,1701832382
332,pandan,14.0453,124.1694,28.67,80,84,4.86,PH,1701832182
333,tupiza,-21.45,-65.7167,18.67,56,99,3.51,BO,1701832383
334,port lincoln,-34.7333,135.8667,21.49,60,95,3.84,AU,1701832228
335,el tigre,8.8875,-64.2454,24.12,75,52,5.79,VE,1701832385
336,marka,1.7159,44.7717,25.67,81,100,4.21,SO,1701832385
337,myory,55.6217,27.6299,-11.75,98,99,2.06,BY,1701832386
338,bengkulu,-3.8004,102.2655,27.87,75,91,2.11,ID,1701832387
339,khovd,48.0056,91.6419,-3.53,65,94,2.95,MN,1701832387
340,ghat,24.9647,10.1728,15.41,22,1,2.38,LY,1701832388
341,sinabang,2.4803,96.3801,27.16,81,100,2.95,ID,1701832388
342,wad az zaki,14.4619,32.2065,23.02,24,49,6.22,SD,1701832389
343,wuxi,31.5689,120.2886,18.3,29,100,7.66,CN,1701832390
344,shahzadpur,24.1667,89.6,22.81,61,100,0.45,BD,1701832392
345,zeya,53.75,127.2667,-9.73,95,100,1.97,RU,1701832392
346,sos'va,59.1766,61.8558,-21.61,94,100,4.7,RU,1701832393
347,popondetta,-8.7537,148.2534,34.89,44,69,3.19,PG,1701832393
348,timaru,-44.4,171.25,19.48,78,88,3.13,NZ,1701832394
349,corinto,37.9407,22.9573,13.27,83,100,1.18,GR,1701832395
350,plettenberg bay,-34.0527,23.3716,15.63,84,39,4.37,ZA,1701832396
351,kiffa,16.6166,-11.4045,22.35,21,22,3.25,MR,1701832397
352,bathsheba,13.2167,-59.5167,27.34,78,20,9.26,BB,1701832397
353,castillos,-34.1667,-53.8333,17.52,97,100,4.11,UY,1701832398
354,puerto aysen,-45.4,-72.7,9.24,97,6,1.44,CL,1701832399
355,porto novo,6.4965,2.6036,26.48,80,9,2.47,BJ,1701832285
356,mil'kovo,55.6078,37.7956,-11.78,100,95,1.07,RU,1701832400
357,swakopmund,-22.6833,14.5333,16.1,88,55,0.89,NA,1701832220
358,sungailiat,-1.85,106.1333,29.39,72,83,0.87,ID,1701832402
359,york,40.1254,-77.0,3.74,77,99,0.76,US,1701831989
360,zhanaozen,43.3,52.8,-0.06,74,100,5.9,KZ,1701832403
361,tucumcari,35.1717,-103.725,3.91,56,0,2.06,US,1701832404
362,turbana,10.2717,-75.4422,26.45,90,72,4.74,CO,1701832404
363,san rafael,-34.6177,-68.3301,16.15,76,99,4.22,AR,1701832405
364,alta,69.9689,23.2717,-12.41,72,75,2.06,NO,1701832405
365,temara,33.9287,-6.9066,18.05,88,75,8.75,MA,1701832406
366,illizi,26.4833,8.4667,14.85,24,22,1.27,DZ,1701832407
367,tarauaca,-8.1614,-70.7656,22.58,100,98,0.84,BR,1701832215
368,constitucion,-35.3333,-72.4167,11.12,92,1,1.83,CL,1701832160
369,guatire,10.4762,-66.5427,25.38,95,99,0.88,VE,1701832409
370,acarau,-2.8856,-40.12,26.96,82,27,6.76,BR,1701832409
371,yartsevo,55.0667,32.6964,-16.28,99,92,1.04,RU,1701832410
372,mazagao,-0.115,-51.2894,26.03,88,51,1.88,BR,1701832411
373,ust'-ilimsk,58.0006,102.6619,-32.53,100,26,0.89,RU,1701832411
374,atafu village,-8.5421,-172.5159,29.17,73,100,3.23,TK,1701832412
375,cockburn town,21.4612,-71.1419,27.16,80,9,7.45,TC,1701832153
376,brookings,44.3114,-96.7984,-1.01,71,0,0.0,US,1701832083
377,horta,38.5333,-28.6333,18.9,94,100,11.62,PT,1701832414
378,dubbo,-32.25,148.6167,38.07,18,5,5.66,AU,1701832269
379,estevan,49.1334,-102.9842,4.19,85,94,5.38,CA,1701832415
380,tuensang,26.2833,94.8333,20.28,53,90,0.23,IN,1701832416
381,choibalsan,48.0667,114.5,-14.53,75,2,7.36,MN,1701832416
382,kununurra,-15.7667,128.7333,35.99,52,14,3.6,AU,1701832417
383,chongwe,-15.3292,28.682,18.89,56,10,0.78,ZM,1701832418
384,sisimiut,66.9395,-53.6735,-10.81,73,28,5.68,GL,1701832227
385,susa,35.8254,10.637,11.88,82,40,1.54,TN,1701832419
386,bihar sharif,25.1833,85.5167,22.05,55,100,0.48,IN,1701832420
387,hobyo,5.3505,48.5268,25.17,70,82,7.08,SO,1701832420
388,namibe,-15.1961,12.1522,23.65,85,96,0.92,AO,1701832421
389,masterton,-40.9597,175.6575,18.82,61,85,3.23,NZ,1701832421
390,ilha de mocambique,-15.0342,40.7358,26.52,80,23,1.37,MZ,1701832422
391,prado,-17.3411,-39.2208,24.75,88,0,3.68,BR,1701832423
392,berbera,10.4396,45.0143,24.86,64,51,1.74,SO,1701832423
393,fort mcmurray,56.7268,-111.381,4.75,69,0,5.58,CA,1701832339
394,dinajpur,25.6272,88.6386,23.25,53,81,2.59,BD,1701832425
395,champerico,14.3,-91.9167,27.46,77,3,2.67,GT,1701832426
396,kuta,-8.7233,115.1723,28.97,83,20,4.63,ID,1701832289
397,bubaque,11.2833,-15.8333,28.07,66,0,3.43,GW,1701832427
398,bor,56.3567,44.0669,-12.04,100,91,1.9,RU,1701832428
399,palasa,18.7667,84.4167,22.83,75,100,6.02,IN,1701832429
400,magadan,59.5667,150.8,-22.48,67,95,2.87,RU,1701832337
401,al jahra',29.3375,47.6581,16.46,28,76,2.16,KW,1701832430
402,kapit,2.0167,112.9333,29.98,68,100,0.98,MY,1701832431
403,itoman,26.1247,127.6694,23.43,57,75,2.57,JP,1701832431
404,ardakan,32.31,54.0175,9.03,25,0,0.49,IR,1701832432
405,port blair,11.6667,92.75,26.02,94,100,4.42,IN,1701832432
406,kanggye,40.9695,126.5852,3.83,98,100,1.33,KP,1701832433
407,bermeo,43.4209,-2.7215,8.95,77,81,2.13,ES,1701832434
408,agbor,6.2518,6.1934,23.38,94,0,1.45,NG,1701832434
409,saudarkrokur,65.7461,-19.6394,-4.44,68,2,3.12,IS,1701832435
410,balsas,-7.5325,-46.0356,25.63,65,90,1.13,BR,1701832436
411,shentala,54.45,51.4833,-18.32,100,99,2.53,RU,1701832436
412,al burayqah,30.4062,19.5739,17.37,47,100,5.28,LY,1701832437
413,priozersk,61.0393,30.1291,-17.37,99,93,1.28,RU,1701832438
414,palmer,42.1584,-72.3287,2.01,69,100,0.0,US,1701832438
415,awjilah,29.1081,21.2869,14.03,73,100,2.81,LY,1701832439
416,opuwo,-18.0607,13.84,21.14,75,100,3.15,NA,1701832440
417,soure,-0.7167,-48.5233,27.08,81,85,4.13,BR,1701832194
418,ujae,8.9322,165.7642,28.12,78,25,9.86,MH,1701832441
419,ostersund,63.1792,14.6357,-15.77,85,20,0.0,SE,1701832442
420,keflavik,64.0049,-22.5624,1.24,69,0,8.23,IS,1701832442
421,iwanai,42.9744,140.5089,8.21,77,0,1.29,JP,1701832444
422,nuku'alofa,-21.1333,-175.2,26.02,78,100,3.2,TO,1701832444
423,mahdishahr,35.7108,53.3556,4.74,39,2,0.96,IR,1701832445
424,tsiombe,-25.3,45.4833,23.24,84,34,3.21,MG,1701832446
425,madimba,-10.4,40.3333,25.76,84,13,1.83,TZ,1701832446
426,praia da vitoria,38.7333,-27.0667,19.31,95,99,13.17,PT,1701832447
427,portland,45.5234,-122.6762,15.46,93,100,4.92,US,1701832071
428,kalianget,-7.05,113.9333,30.46,66,74,2.11,ID,1701832448
429,dogondoutchi,13.6393,4.0287,23.48,15,0,4.69,NE,1701832449
430,kralendijk,12.15,-68.2667,27.99,74,20,5.66,BQ,1701832423
431,itamaraca,-7.7478,-34.8256,27.03,78,3,4.78,BR,1701832450
432,mata-utu,-13.2816,-176.1745,28.62,76,92,6.91,WF,1701832451
433,zhangjiakou shi xuanhua qu,40.6103,115.0447,1.04,27,14,4.83,CN,1701832452
434,qina,26.1642,32.7267,16.77,39,0,2.96,EG,1701832452
435,mukalla,14.5425,49.1242,23.04,60,7,1.51,YE,1701832453
436,hadithah,34.1397,42.3781,15.59,44,57,5.01,IQ,1701832455
437,luderitz,-26.6481,15.1594,15.61,79,2,5.96,NA,1701832455
438,pisco,-13.7,-76.2167,20.03,83,0,4.63,PE,1701832249
439,newbury,51.4003,-1.3206,5.38,95,24,2.13,GB,1701832456
440,fort bragg,35.139,-79.006,6.36,84,75,0.0,US,1701832457
441,tangalle,6.024,80.7911,25.09,80,47,3.41,LK,1701832458
442,carolina,18.3808,-65.9574,27.24,81,40,0.45,PR,1701832459
443,buka,40.8108,69.1986,9.49,34,6,0.08,UZ,1701832460
444,arno,60.1167,18.6333,-3.45,95,60,2.26,SE,1701832461
445,cedeira,43.6797,-8.0209,5.21,74,95,2.37,ES,1701832461
446,midelt,32.6852,-4.7451,8.99,75,96,4.2,MA,1701832462
447,assab,13.0092,42.7394,25.84,71,10,10.0,ER,1701832463
448,bel ombre,-4.6167,55.4167,25.91,94,40,1.03,SC,1701832463
449,belfast,54.5833,-5.9333,5.77,87,100,3.6,GB,1701832280
450,vorkuta,67.5,64.0,-30.25,95,22,1.36,RU,1701832465
451,crane,31.3974,-102.3501,13.81,35,70,3.79,US,1701832465
452,mariakani,-3.8633,39.4736,22.91,93,70,1.35,KE,1701832466
453,coronel du graty,-27.6804,-60.9146,20.96,96,76,3.82,AR,1701832467
454,shatrovo,56.5167,64.6333,-16.94,93,100,4.79,RU,1701832468
455,belmonte,-15.8631,-38.8828,24.38,87,14,2.89,BR,1701832184
456,veraval,20.9,70.3667,24.29,61,30,6.6,IN,1701832469
457,midvagur,62.0511,-7.1939,-0.54,86,40,0.51,FO,1701832469
458,kismayo,-0.3582,42.5454,27.03,77,65,5.2,SO,1701832470
459,ain sefra,32.75,-0.5833,11.07,50,100,2.21,DZ,1701832471
460,canutama,-6.5339,-64.3831,23.73,92,98,0.63,BR,1701832471
461,ulladulla,-35.35,150.4667,21.81,64,28,4.29,AU,1701832472
462,valparaiso,-33.0393,-71.6273,11.8,82,0,1.54,CL,1701832218
463,magdagachi,53.45,125.8,-14.36,88,100,3.12,RU,1701832473
464,sodankyla,67.4167,26.6,-17.61,100,94,1.2,FI,1701832474
465,i-n-salah,27.1935,2.4607,15.9,26,100,2.13,DZ,1701832476
466,tomatlan,19.9333,-105.25,23.96,65,18,1.79,MX,1701832476
467,kodiak,57.79,-152.4072,-1.27,59,20,20.06,US,1701832477
468,ben gardane,33.1378,11.2197,15.47,58,100,2.46,TN,1701832477
469,warrnambool,-38.3833,142.4833,17.54,55,22,4.87,AU,1701832230
470,pudozh,61.8099,36.5345,-14.47,97,100,0.89,RU,1701832479
471,bodo,67.28,14.405,-4.47,89,100,7.2,NO,1701832479
472,lae,-6.7221,146.9847,31.07,58,75,4.24,PG,1701832480
473,impfondo,1.6381,18.0667,22.34,89,100,0.26,CG,1701832481
474,dassun,17.7204,121.6816,28.7,74,32,1.45,PH,1701832481
475,ouesso,1.6136,16.0517,21.39,94,100,0.4,CG,1701832483
476,vallegrande,-18.4897,-64.1069,13.64,92,100,2.15,BO,1701832483
477,nyurba,63.2842,118.3319,-45.27,99,76,2.45,RU,1701832484
478,kibaya,-5.3,36.5667,15.88,94,84,1.08,TZ,1701832485
479,katsuura,35.1333,140.3,14.9,63,81,3.93,JP,1701832486
480,port moresby,-9.4431,147.1797,30.21,63,85,4.11,PG,1701832305
481,lerwick,60.1545,-1.1494,-3.0,76,24,1.41,GB,1701832301
482,usogorsk,63.4106,48.6872,-26.3,99,29,1.27,RU,1701832487
483,dwarka,22.2394,68.9678,23.39,57,0,7.67,IN,1701832488
484,al fuwayliq,26.4432,43.2534,15.01,28,16,3.87,SA,1701832489
485,marat,25.0701,45.4615,14.94,22,2,2.81,SA,1701832489
486,ephraim,39.3597,-111.5863,3.42,70,1,1.49,US,1701832490
487,tofol,5.3248,163.0078,28.88,79,75,4.12,FM,1701832490
488,oum hadjer,13.2954,19.6966,23.6,14,100,4.21,TD,1701832491
489,la passe,45.5549,-0.8967,1.13,79,100,2.38,FR,1701832199
490,togur,58.3631,82.8265,-19.92,94,100,4.02,RU,1701832492
491,rio grande,-32.035,-52.0986,21.08,87,100,9.57,BR,1701832493
492,berdigestyakh,62.0989,126.6992,-44.89,99,80,1.5,RU,1701832494
493,puerto asis,0.5133,-76.5007,24.0,87,90,0.88,CO,1701832494
494,aykhal,66.0,111.5,-27.97,98,100,3.13,RU,1701832495
495,bom jesus,-9.0744,-44.3586,25.97,56,36,1.27,BR,1701832495
496,terrace,54.5163,-128.6035,4.56,99,99,1.45,CA,1701832496
497,atasu,48.6814,71.6433,1.92,86,28,7.26,KZ,1701832497
498,kapuskasing,49.4169,-82.4331,-14.79,98,35,0.49,CA,1701832207
499,tambura,5.6,27.4667,22.74,79,43,1.49,SS,1701832499
500,tete,-16.1564,33.5867,26.05,65,0,1.54,MZ,1701832499
501,argo,37.6333,22.7333,13.21,81,100,1.13,GR,1701832500
502,klaksvik,62.2266,-6.589,-0.49,71,97,4.07,FO,1701832501
503,semirom,31.4167,51.5667,1.86,33,7,1.19,IR,1701832501
504,hoshangabad,22.75,77.7167,21.11,63,98,4.39,IN,1701832502
505,buala,-8.145,159.5921,27.86,84,99,8.52,SB,1701832503
506,bilokurakyne,49.5341,38.7307,-3.26,77,100,2.77,UA,1701832503
507,thames,-37.1333,175.5333,21.67,64,55,2.26,NZ,1701832240
508,yatou,37.15,122.3833,9.49,47,32,10.7,CN,1701832505
509,laguna,38.421,-121.4238,14.62,83,0,0.0,US,1701832506
510,pong nam ron,12.9058,102.2623,30.84,64,10,1.99,TH,1701832506
511,park forest village,40.8067,-77.9169,0.7,94,100,0.0,US,1701832507
512,yuzhno-kurilsk,44.0306,145.8556,7.43,84,83,2.48,RU,1701832508
513,souillac,-20.5167,57.5167,25.21,88,40,0.0,MU,1701832509
514,cantagalo,-21.9811,-42.3681,21.09,98,60,1.05,BR,1701832509
515,joao neiva,-19.7575,-40.3856,22.06,96,6,0.49,BR,1701832510
516,madinat ash shamal,26.1293,51.2009,22.1,66,2,3.46,QA,1701832511
517,olovyannaya,50.95,115.5667,-17.21,75,100,8.0,RU,1701832512
518,chikwawa,-16.0335,34.8009,22.99,86,0,1.4,MW,1701832512
519,kangding,30.0513,101.9603,6.03,19,100,2.93,CN,1701832335
520,zaozersk,69.4005,32.4476,-12.05,96,100,2.12,RU,1701832514
521,juneau,58.3019,-134.4197,6.0,93,100,10.8,US,1701832383
522,port shepstone,-30.7414,30.455,19.86,83,100,4.43,ZA,1701832515
523,lafia,8.4833,8.5167,24.23,28,1,1.07,NG,1701832516
524,barclayville,4.6797,-8.2339,24.6,88,14,1.18,LR,1701832324
525,srandakan,-7.9386,110.2506,30.06,65,65,4.01,ID,1701832517
526,mchinji,-13.7984,32.8802,19.43,65,29,1.84,MW,1701832518
527,nogliki,51.8333,143.1667,-3.7,85,100,4.02,RU,1701832519
528,anar darah,32.7587,61.654,11.23,22,0,2.94,AF,1701832520
529,berezovo,63.9381,65.0419,-36.13,97,16,3.3,RU,1701832521
530,naracoorte,-36.9579,140.7383,27.16,19,69,3.44,AU,1701832521
531,la grande,45.3246,-118.0877,8.87,92,100,2.92,US,1701832258
532,tibiri,13.5627,7.0485,19.64,21,1,4.49,NE,1701832523
533,grabouw,-34.1515,19.0151,15.81,81,59,6.16,ZA,1701832524
534,ojinaga,29.5667,-104.4167,15.53,33,0,3.6,MX,1701832525
535,chibuto,-24.6867,33.5306,22.25,80,87,1.1,MZ,1701832525
536,galliano,29.4422,-90.2992,12.78,82,0,0.0,US,1701832527
537,machico,32.7,-16.7667,19.45,81,40,3.6,PT,1701832528
538,baskale,38.0453,44.0172,-0.34,75,99,1.03,TR,1701832528
539,kudymkar,59.0173,54.656,-23.25,100,94,1.1,RU,1701832529
540,mancio lima,-7.6142,-72.8958,22.54,96,100,0.68,BR,1701832530
541,maua,-23.6678,-46.4614,23.33,91,98,1.57,BR,1701832404
