City_ID,City,Lat,Lng,Max Temp,Humidity,Cloudiness,Wind Speed,Country,Date
0,papatowai,-46.5619,169.4708,14.01,41,5,4.25,NZ,1701651838
1,college,64.8569,-147.8028,-20.31,70,20,0.0,US,1701651840
2,brokopondo,4.75,-55.1667,26.53,75,97,3.58,SR,1701651842
3,port-aux-francais,-49.35,70.2167,4.5,81,12,14.81,TF,1701651843
4,aykhal,66.0,111.5,-38.59,99,60,2.46,RU,1701651845
5,lospalos,-8.5186,127.0025,29.9,60,37,3.52,TL,1701651846
6,puerto natales,-51.7236,-72.4875,4.42,98,58,1.82,CL,1701651848
7,albany,42.6001,-73.9662,5.3,93,100,0.89,US,1701651642
8,edinburgh of the seven seas,-37.0676,-12.3116,14.79,83,0,4.16,SH,1701651850
9,invercargill,-46.4,168.35,12.63,48,9,4.98,NZ,1701651852
10,jamestown,42.097,-79.2353,4.75,97,100,6.69,US,1701651853
11,adamstown,-25.066,-130.1015,22.88,80,100,4.99,PN,1701651854
12,bikenibeu village,1.3673,173.1241,31.98,70,40,3.6,KI,1701651856
13,luderitz,-26.6481,15.1594,15.98,72,0,8.46,NA,1701651857
14,kencong,-8.2833,113.3667,27.82,78,76,0.92,ID,1701651859
15,ilulissat,69.2167,-51.1,-4.99,68,100,2.57,GL,1701651860
16,geraldton,-28.7667,114.6,25.23,57,0,8.75,AU,1701651729
17,coatepec,19.45,-96.9667,17.79,97,100,0.95,MX,1701651863
18,magadan,59.5667,150.8,-21.86,80,34,1.77,RU,1701651864
19,san antonio de pale,-1.4014,5.6325,26.72,85,30,3.4,GQ,1701651866
20,vorgashor,67.5833,63.95,-26.51,96,100,1.91,RU,1701651868
21,valparaiso,-33.0393,-71.6273,15.8,51,0,2.57,CL,1701651869
22,tiksi,71.6872,128.8694,-28.05,99,100,3.76,RU,1701651871
23,west island,-12.1568,96.8225,26.99,74,40,5.14,CC,1701651873
24,palikir - national government center,6.9248,158.1611,31.41,70,100,5.14,FM,1701651875
25,olonkinbyen,70.9221,-8.7187,0.46,90,24,5.98,SJ,1701651877
26,lakatoro,-16.0999,167.4164,29.14,73,42,5.69,VU,1701651878
27,waitangi,-43.9535,-176.5597,11.57,74,100,9.81,NZ,1701651880
28,prado,-17.3411,-39.2208,25.19,85,0,4.59,BR,1701651881
29,kununurra,-15.7667,128.7333,34.99,46,12,2.06,AU,1701651763
30,erenhot,43.6475,111.9767,-6.95,78,3,3.78,CN,1701651885
31,mejit,10.2753,170.8646,27.2,77,100,9.36,MH,1701651887
32,moratuwa,6.773,79.8816,25.48,91,100,3.48,LK,1701651890
33,utrik,11.2278,169.8474,27.32,74,100,8.85,MH,1701651891
34,lihue,21.9789,-159.3672,27.58,74,0,5.66,US,1701651893
35,margaret river,-33.95,115.0667,18.54,71,100,5.65,AU,1701651894
36,sidi ifni,29.3797,-10.173,15.86,69,8,0.44,MA,1701651895
37,aasiaat,68.7098,-52.8699,-11.06,83,100,1.69,GL,1701651897
38,sheregesh,52.9209,87.9869,-4.47,92,100,8.17,RU,1701651898
39,mount pearl,47.5166,-52.7813,0.64,77,100,4.12,CA,1701651900
40,lerwick,60.1545,-1.1494,4.0,69,31,2.97,GB,1701651902
41,kapuskasing,49.4169,-82.4331,-7.95,86,40,3.09,CA,1701651904
42,hithadhoo,-0.6,73.0833,27.74,77,100,3.6,MV,1701651907
43,st. john's,47.5649,-52.7093,1.1,77,100,4.12,CA,1701651786
44,petropavlovsk-kamchatsky,53.0452,158.6483,-7.53,76,0,3.58,RU,1701651705
45,santyoku,37.4406,129.1708,7.5,29,6,2.39,KR,1701651911
46,pangody,65.85,74.4859,-29.23,98,14,4.27,RU,1701651912
47,udachny,66.4167,112.4,-42.92,100,74,1.59,RU,1701651913
48,mareeba,-17.0,145.4333,34.13,49,93,2.25,AU,1701651915
49,tazovsky,67.4667,78.7,-29.51,92,25,4.57,RU,1701651916
50,ust-nera,64.5667,143.2,-39.06,98,100,1.9,RU,1701651917
51,yellowknife,62.456,-114.3525,-19.71,84,100,4.12,CA,1701651717
52,tual,-5.6667,132.75,28.15,77,36,3.03,ID,1701651919
53,hirado,33.3597,129.5531,13.55,55,7,2.52,JP,1701651921
54,illapel,-31.6308,-71.1653,18.16,55,0,1.2,CL,1701651372
55,afaahiti,-17.75,-149.2833,30.93,83,100,9.87,PF,1701651923
56,cheremukhovo,60.3484,59.9851,-19.63,99,100,0.94,RU,1701651925
57,badger,64.8,-147.5333,-20.36,70,20,0.0,US,1701651926
58,tinajo,29.0788,-13.7081,16.49,72,20,2.57,ES,1701651927
59,wynyard,-41.0,145.7167,17.21,71,100,4.24,AU,1701651929
60,isafjordur,66.0755,-23.124,0.58,89,100,3.93,IS,1701651930
61,cidreira,-30.1811,-50.2056,21.31,95,100,4.2,BR,1701651776
62,atafu village,-8.5421,-172.5159,29.25,76,100,5.78,TK,1701651932
63,niksar,40.5917,36.9517,12.89,54,100,3.19,TR,1701651933
64,kovalam,8.3667,76.9967,28.05,78,75,1.03,IN,1701651934
65,lebu,-37.6167,-73.65,11.42,80,0,10.81,CL,1701651935
66,gadzhiyevo,69.2551,33.3362,-4.38,92,100,1.5,RU,1701651936
67,slave lake,55.2834,-114.769,-5.01,80,100,2.57,CA,1701651695
68,bredasdorp,-34.5322,20.0403,14.41,83,1,2.64,ZA,1701651939
69,fedorovka,53.6314,62.7078,-8.44,78,100,0.62,KZ,1701651940
70,grytviken,-54.2811,-36.5092,0.77,73,8,1.96,GS,1701651942
71,barcelos,41.5388,-8.6151,15.08,92,74,3.18,PT,1701651943
72,taulaga,-11.0553,-171.0883,28.54,76,76,6.62,AS,1701651945
73,vilyuchinsk,52.9306,158.4028,-6.71,71,8,4.41,RU,1701651946
74,mar del plata,-38.0023,-57.5575,14.49,58,0,5.36,AR,1701651948
75,mao,39.8885,4.2658,13.31,67,20,3.09,ES,1701651949
76,bilibino,68.0546,166.4372,-22.16,99,100,1.25,RU,1701651950
77,puerto ayora,-0.7393,-90.3518,24.19,91,64,2.24,EC,1701651951
78,bambui,-20.0064,-45.9769,23.29,64,35,1.63,BR,1701651805
79,gilgit,35.9221,74.3087,3.48,43,2,1.62,PK,1701651954
80,hawaiian paradise park,19.5933,-154.9731,24.93,94,100,2.57,US,1701651955
81,fale old settlement,-9.3852,-171.2468,29.59,73,100,6.68,TK,1701651956
82,port macquarie,-31.4333,152.9167,25.5,68,57,4.37,AU,1701651860
83,port mathurin,-19.6833,63.4167,25.69,82,27,8.03,MU,1701651667
84,rongelap,11.1635,166.8941,27.65,70,99,7.67,MH,1701651960
85,hafar al-batin,28.4328,45.9708,12.32,50,0,1.03,SA,1701651961
86,flying fish cove,-10.4217,105.6791,26.82,78,75,4.12,CX,1701651962
87,baiyin,36.5583,104.2081,0.89,31,0,1.71,CN,1701651963
88,fort st. john,56.2499,-120.8529,-3.06,93,100,5.14,CA,1701651964
89,grande prairie,55.1667,-118.8027,-4.9,93,75,1.54,CA,1701651853
90,svetlyy,54.675,20.1347,0.03,73,100,7.11,RU,1701651967
91,warrnambool,-38.3833,142.4833,24.51,41,30,3.51,AU,1701651969
92,ushuaia,-54.8,-68.3,8.81,71,75,16.98,AR,1701651970
93,kerikeri,-35.2268,173.9474,22.07,81,100,2.99,NZ,1701651971
94,tura,25.5198,90.2201,16.83,74,100,1.9,IN,1701651973
95,usinsk,65.9939,57.5281,-14.76,97,100,3.15,RU,1701651974
96,totness,5.8833,-56.3167,26.4,86,2,5.64,SR,1701651976
97,ribeira grande,38.5167,-28.7,15.48,50,35,2.05,PT,1701651977
98,mananara,-16.1667,49.7667,22.55,87,89,2.37,MG,1701651979
99,jamaame,0.0697,42.745,27.07,76,96,4.12,SO,1701651980
100,grand falls-windsor,48.9332,-55.6649,-1.94,77,100,0.59,CA,1701651766
101,talnakh,69.4865,88.3972,-34.16,86,12,0.65,RU,1701651981
102,hadibu,12.65,54.0333,24.94,69,100,7.49,YE,1701651983
103,chibougamau,49.9168,-74.3659,-12.21,85,0,4.63,CA,1701651805
104,xilin hot,43.9667,116.0333,-9.96,88,12,2.74,CN,1701651986
105,fengxiang,47.5833,130.8333,-8.11,88,100,2.84,CN,1701651987
106,westport,41.1415,-73.3579,9.07,91,100,2.06,US,1701651989
107,pisco,-13.7,-76.2167,20.57,77,0,8.23,PE,1701651990
108,stanley,54.868,-1.6985,-0.82,96,75,1.03,GB,1701651936
109,weno,7.4515,151.8468,30.97,74,100,4.12,FM,1701651993
110,ambon,-3.6954,128.1814,30.08,70,40,1.03,ID,1701651994
111,juegang,32.3174,121.1855,9.89,65,99,2.07,CN,1701651995
112,wailua homesteads,22.0669,-159.378,27.24,75,0,5.66,US,1701651997
113,stephenville,32.2207,-98.2023,16.54,33,0,2.06,US,1701651998
114,yelizovo,53.1873,158.3805,-6.78,57,0,2.0,RU,1701652000
115,minchianabad,30.163,73.5685,14.83,44,34,1.21,PK,1701652001
116,brisas de zicatela,15.8369,-97.0419,26.89,77,0,2.29,MX,1701652002
117,georgetown,5.4112,100.3354,27.75,83,20,1.54,MY,1701652004
118,inhambane,-23.865,35.3833,22.52,73,7,3.42,MZ,1701652005
119,hell-ville,-13.4,48.2667,26.69,79,32,2.49,MG,1701652006
120,qaqortoq,60.7167,-46.0333,-3.82,73,100,3.28,GL,1701652007
121,whitehorse,60.7161,-135.0538,-11.06,98,100,0.69,CA,1701652008
122,san juan de miraflores,-12.1629,-76.9635,21.76,76,100,3.42,PE,1701652010
123,port alfred,-33.5906,26.891,14.54,92,100,2.52,ZA,1701652011
124,chepo,9.1667,-79.1,27.76,91,44,2.2,PA,1701652012
125,coahuayana de hidalgo,18.7,-103.6583,25.75,73,96,0.17,MX,1701652013
126,shipunovo,52.1582,82.2173,-6.69,81,100,9.61,RU,1701652013
127,cockburn town,21.4612,-71.1419,25.98,57,40,2.57,TC,1701652015
128,huarmey,-10.0681,-78.1522,20.53,85,100,4.27,PE,1701652016
129,blackmans bay,-43.0167,147.3167,20.07,58,100,0.89,AU,1701652018
130,lycksele,64.5954,18.6735,-9.76,85,100,1.54,SE,1701652019
131,laguna,38.421,-121.4238,17.25,73,0,2.06,US,1701652020
132,alofi,-19.0595,-169.9187,26.14,78,4,6.11,NU,1701652021
133,khovd,48.0056,91.6419,-1.84,58,52,7.39,MN,1701652023
134,bathsheba,13.2167,-59.5167,27.34,83,40,6.17,BB,1701652024
135,bethel,41.3712,-73.414,7.49,89,100,2.57,US,1701652025
136,saipan,15.1355,145.701,30.39,66,40,8.23,MP,1701652027
137,thompson,55.7435,-97.8558,-4.91,93,100,2.06,CA,1701652028
138,rolla,37.9514,-91.7713,8.25,71,0,4.63,US,1701651884
139,praia da vitoria,38.7333,-27.0667,13.75,76,69,2.57,PT,1701652029
140,swakopmund,-22.6833,14.5333,16.1,85,94,2.51,NA,1701652031
141,newman,37.3138,-121.0208,14.47,48,100,0.77,US,1701652032
142,bac lieu,9.285,105.7244,27.19,81,100,6.47,VN,1701652033
143,sungai raya,0.7,108.9,26.57,83,100,0.85,ID,1701652035
144,kudahuvadhoo,2.6708,72.8944,27.01,80,99,2.89,MV,1701652036
145,mynamaki,60.7446,22.0243,-12.92,97,97,1.37,FI,1701652037
146,chacabuco,-34.6417,-60.4739,15.46,43,95,3.11,AR,1701651785
147,swift current,50.2834,-107.8014,-4.07,78,100,4.37,CA,1701652039
148,zarnovica,48.4812,18.7157,-8.77,96,80,0.78,SK,1701652041
149,corner brook,48.9667,-57.9484,-4.07,94,100,0.19,CA,1701652042
150,avarua,-21.2078,-159.775,26.03,69,100,7.72,CK,1701652043
151,asosa,10.0667,34.5333,18.46,45,40,1.35,ET,1701651761
152,boende,-0.2167,20.8667,21.32,99,100,0.88,CD,1701652045
153,humaita,-7.5061,-63.0208,26.74,72,94,0.61,BR,1701652047
154,diapaga,12.0708,1.7889,24.4,18,100,2.55,BF,1701652048
155,prince albert,53.2001,-105.7677,-10.11,91,8,1.38,CA,1701652049
156,ancud,-41.8697,-73.8203,8.76,75,0,3.28,CL,1701652050
157,beau vallon,-20.4189,57.6953,23.45,94,40,2.57,MU,1701652052
158,palmer,42.1584,-72.3287,5.75,84,100,3.09,US,1701651860
159,pampierstad,-27.7832,24.6877,22.56,27,74,1.61,ZA,1701652054
160,chifeng,42.2683,118.9636,-1.86,47,100,2.06,CN,1701652055
161,tsu,34.7303,136.5086,11.08,61,5,3.02,JP,1701652057
162,haiku-pauwela,20.9219,-156.3051,28.01,66,40,6.17,US,1701652059
163,hammerfest,70.6634,23.6821,1.25,86,40,4.12,NO,1701652061
164,zimovniki,47.1483,42.4633,9.16,96,99,2.97,RU,1701652063
165,iqaluit,63.7506,-68.5145,-18.17,88,87,2.89,CA,1701652064
166,saint-gely-du-fesc,43.6927,3.8049,2.25,65,0,3.6,FR,1701652065
167,uturoa,-16.7333,-151.4333,27.2,79,61,9.5,PF,1701652066
168,eyl,7.9803,49.8164,23.64,71,85,7.91,SO,1701652067
169,ushibukamachi,32.1906,130.0228,12.43,58,89,2.03,JP,1701652068
170,changyon,38.2508,125.0961,4.11,74,100,2.85,KP,1701652070
171,dauphin,51.1494,-100.0502,-5.4,84,5,3.29,CA,1701652071
172,port blair,11.6667,92.75,27.44,82,96,5.8,IN,1701652072
173,nizhnyaya tavda,57.6731,66.1725,-21.68,98,76,1.18,RU,1701652074
174,aitape,-3.1374,142.3475,28.34,79,100,1.26,PG,1701652076
175,kailua-kona,19.6406,-155.9956,27.98,82,20,4.12,US,1701651787
176,tomatlan,19.9333,-105.25,25.32,67,100,0.81,MX,1701652080
177,srivardhan,18.0333,73.0167,24.53,65,100,2.07,IN,1701652081
178,bourbon-lancy,46.6221,3.7695,2.17,50,100,4.04,FR,1701652083
179,gelemso,8.8167,40.5167,13.04,46,12,1.16,ET,1701652085
180,tekirova,36.5017,30.5272,18.29,76,100,1.19,TR,1701652089
181,vilhena,-12.7406,-60.1458,21.82,93,63,1.62,BR,1701652091
182,longyearbyen,78.2186,15.6401,-10.09,62,20,4.63,SJ,1701652092
183,lee acres,35.1487,-106.647,8.79,46,40,5.36,US,1701652093
184,lethem,3.3803,-59.7968,28.78,53,33,4.19,GY,1701652095
185,naze,28.3667,129.4833,14.66,77,100,2.7,JP,1701652096
186,constantia,44.1833,28.65,1.38,77,100,7.26,RO,1701652097
187,kodiak,57.79,-152.4072,2.73,87,0,4.63,US,1701651831
188,marsh harbour,26.5412,-77.0636,25.45,84,3,1.96,BS,1701652100
189,beyneu,45.3167,55.2,9.12,70,100,5.52,KZ,1701652101
190,remire-montjoly,4.9167,-52.2667,25.02,94,0,0.0,GF,1701652105
191,kashgar,39.4547,75.9797,0.71,39,0,1.79,CN,1701652106
192,susuman,62.7833,148.1667,-32.94,99,100,0.63,RU,1701652107
193,pasuquin,18.3328,120.6177,29.97,74,75,1.54,PH,1701652108
194,derzhavinsk,51.1,66.3167,-7.04,84,93,2.8,KZ,1701652109
195,mhamid,29.82,-5.72,14.47,46,10,2.41,MA,1701652110
196,colonia,50.9333,6.95,1.6,77,0,4.63,DE,1701652052
197,usogorsk,63.4106,48.6872,-16.76,99,100,0.96,RU,1701652113
198,nadym,65.5333,72.5167,-27.17,100,100,4.06,RU,1701652114
199,novodvinsk,64.4165,40.8122,-15.14,99,84,1.18,RU,1701652115
200,hermanus,-34.4187,19.2345,16.56,76,60,2.02,ZA,1701652118
201,vila franca do campo,37.7167,-25.4333,13.23,68,100,3.05,PT,1701652119
202,la'ie,21.6477,-157.9253,28.98,79,13,1.79,US,1701652120
203,suva,-18.1416,178.4415,31.71,62,40,4.63,FJ,1701652122
204,luang namtha,20.9497,101.4011,19.81,99,95,0.21,LA,1701652123
205,hamilton,39.1834,-84.5333,7.83,76,21,4.92,US,1701651614
206,eldorado,-23.7869,-54.2836,22.27,97,100,1.07,BR,1701652112
207,les avirons,-21.2418,55.3394,20.03,68,18,5.14,RE,1701652126
208,cabo san lucas,22.8909,-109.9124,24.86,60,0,1.35,MX,1701651629
209,chishmy,54.5765,55.3764,-6.87,96,100,6.62,RU,1701652128
210,arkhangel'sk,64.5401,40.5433,-14.94,85,100,1.0,RU,1701652129
211,uludere,37.445,42.8617,6.26,34,56,1.63,TR,1701652132
212,belomorsk,64.5232,34.7668,-15.68,98,67,1.62,RU,1701652133
213,port antonio,18.18,-76.4612,26.11,80,84,3.32,JM,1701652134
214,khorramabad,33.4878,48.3558,9.38,30,0,0.91,IR,1701652136
215,lingcheng,22.7072,110.3492,16.65,74,84,2.76,CN,1701652137
216,settat,33.0007,-7.6204,6.9,62,100,1.03,MA,1701652138
217,horta,38.5333,-28.6333,14.84,52,49,2.18,PT,1701652141
218,dellys,36.9172,3.9131,13.33,66,100,3.47,DZ,1701652143
219,priargunsk,50.3691,119.1012,-22.15,100,63,0.63,RU,1701652144
220,egilsstadir,65.2653,-14.3948,-6.38,96,97,1.64,IS,1701652147
221,xiangxiang,27.7333,112.5333,9.63,70,100,0.81,CN,1701652148
222,olean,42.0776,-78.4297,9.38,100,100,4.12,US,1701652149
223,darwin,-12.4611,130.8418,33.36,70,75,3.09,AU,1701651961
224,huntingdon,52.3305,-0.1865,7.74,92,100,3.13,GB,1701652152
225,punta arenas,-53.15,-70.9167,9.06,71,40,13.89,CL,1701652153
226,tofol,5.3248,163.0078,28.88,84,100,4.63,FM,1701652154
227,san borja,-14.8167,-66.85,23.42,94,87,0.73,BO,1701652156
228,zakamensk,50.3741,103.2863,-12.32,92,100,1.9,RU,1701652157
229,wajir,1.7471,40.0573,26.34,50,99,4.0,KE,1701652157
230,harper,4.375,-7.7169,26.16,86,0,3.85,LR,1701652159
231,camana,-16.6228,-72.7111,19.61,77,50,2.42,PE,1701652160
232,celestun,20.8667,-90.4,25.83,86,73,4.13,MX,1701652162
233,sargatskoye,55.6101,73.4972,-18.61,90,29,5.2,RU,1701652163
234,nar'yan-mar,67.6713,53.087,-16.89,96,94,4.49,RU,1701652164
235,gonabad,34.3529,58.6837,8.72,27,0,0.9,IR,1701652044
236,balykshi,47.0667,51.8667,7.0,100,100,6.0,KZ,1701652167
237,fatwa,25.5167,85.3167,19.05,49,79,1.09,IN,1701652168
238,ulanhot,46.0833,122.0833,-5.84,71,11,3.47,CN,1701652169
239,hasaki,35.7333,140.8333,12.38,50,2,5.29,JP,1701652171
240,chonchi,-42.6128,-73.8092,9.56,88,3,1.68,CL,1701652172
241,san matias,-16.3667,-58.4,24.91,85,77,2.05,BO,1701652173
242,kenai,60.5544,-151.2583,-5.48,84,0,0.0,US,1701652154
243,krasnyy yar,46.5331,48.3456,8.96,91,100,4.0,RU,1701652175
244,cedeira,43.6797,-8.0209,12.21,73,67,12.91,ES,1701652176
245,montecristo,8.2971,-74.4733,25.97,86,96,0.77,CO,1701652177
246,saynshand,44.8824,110.1163,-10.86,86,5,2.04,MN,1701652179
247,gaitania,3.0906,-75.6723,18.26,88,98,2.15,CO,1701652182
248,touros,-5.1989,-35.4608,26.51,79,100,5.45,BR,1701652183
249,xunchang,28.4543,104.715,11.07,80,100,0.28,CN,1701652184
250,cacoal,-11.4386,-61.4472,24.56,84,63,1.66,BR,1701652161
251,krasnozerskoye,53.9828,79.2374,-10.85,89,100,8.78,RU,1701652186
252,samdrup jongkhar,26.9167,91.6167,13.38,59,10,2.53,BT,1701652188
253,kathu,7.9178,98.3332,26.9,81,96,4.9,TH,1701652189
254,broken hill,-31.95,141.4333,31.29,15,1,5.25,AU,1701652049
255,vidyayevo,69.3191,32.8049,-6.11,95,100,1.5,RU,1701652193
256,megion,61.0296,76.1136,-28.88,92,8,5.41,RU,1701652194
257,okhotsk,59.3833,143.3,-32.51,84,35,6.17,RU,1701652196
258,phan rang-thap cham,11.5667,108.9833,26.89,72,100,2.55,VN,1701652197
259,serenje,-13.2325,30.2352,16.24,58,99,1.51,ZM,1701652198
260,vecumnieki,56.6064,24.5222,-6.3,97,100,1.51,LV,1701652200
261,baran,25.1,76.5167,16.96,92,66,1.82,IN,1701652201
262,fukuecho,32.6881,128.8419,12.35,54,11,1.07,JP,1701652203
263,polovinnoye,54.7914,65.9864,-15.55,97,100,1.84,RU,1701652204
264,manavalakurichi,8.1333,77.3,25.83,87,70,3.95,IN,1701652205
265,qarauyl,48.9451,79.255,-3.64,68,74,8.32,KZ,1701652206
266,lompoc,34.6391,-120.4579,16.12,83,0,8.23,US,1701652209
267,tindouf,27.6711,-8.1474,16.74,44,0,3.48,DZ,1701652210
268,alice springs,-23.7,133.8833,34.75,14,0,4.63,AU,1701652211
269,santa terezinha,-29.9002,-50.0904,21.19,95,100,2.44,BR,1701652213
270,sampit,-2.5333,112.95,28.99,72,90,0.76,ID,1701652214
271,buka,40.8108,69.1986,9.79,42,76,0.62,UZ,1701652216
272,nefta,33.8731,7.8777,13.0,65,2,1.39,TN,1701652217
273,nuuk,64.1835,-51.7216,-0.66,69,100,1.03,GL,1701652218
274,louis trichardt,-23.0439,29.9032,18.1,52,10,0.89,ZA,1701652220
275,aparan,40.5932,44.3589,-7.72,41,90,1.91,AM,1701652221
276,bandarbeyla,9.4942,50.8122,24.72,71,52,7.99,SO,1701652222
277,mizan teferi,6.9833,35.5833,17.02,91,99,1.47,ET,1701652224
278,masterton,-40.9597,175.6575,15.49,94,100,1.75,NZ,1701652225
279,gunnison,38.7,-107.0673,-2.53,94,42,2.51,US,1701651995
280,bojano,41.4857,14.4729,4.45,83,10,1.84,IT,1701652228
281,bengkulu,-3.8004,102.2655,24.06,91,100,1.03,ID,1701652230
282,sinop,41.7711,34.8709,10.93,65,100,3.3,TR,1701652231
283,turochak,52.2576,87.1224,-2.08,71,100,8.34,RU,1701652233
284,terbanggi besar,-4.8667,105.2333,26.4,80,94,0.39,ID,1701652234
285,pirane,-25.7324,-59.1088,21.63,95,100,3.82,AR,1701652238
286,porto de moz,-1.7483,-52.2383,25.16,76,99,1.49,BR,1701652239
287,el porvenir,13.7617,-87.3458,24.63,75,27,2.63,HN,1701652241
288,oriximina,-1.7656,-55.8661,27.09,68,100,0.95,BR,1701652244
289,quimili,-27.6333,-62.4167,15.22,95,100,8.22,AR,1701652245
290,port elizabeth,-33.918,25.5701,16.29,81,100,1.79,ZA,1701652246
291,northam,51.0333,-4.2167,10.92,97,100,9.1,GB,1701652248
292,polyarnyy,69.1989,33.4478,-3.99,91,100,1.32,RU,1701652249
293,dobryanka,58.4619,56.4165,-12.37,94,100,3.27,RU,1701652250
294,copala,16.65,-98.9833,25.86,80,47,1.77,MX,1701652251
295,santa cruz,-17.8,-63.1667,26.7,69,95,4.12,BO,1701651976
296,makungu,-8.7333,35.2833,18.25,93,100,0.41,TZ,1701652254
297,retreat,38.8245,-85.8533,4.57,81,33,2.22,US,1701652256
298,saacow,1.6279,42.4407,24.93,84,7,4.68,SO,1701652258
299,ejido,8.5514,-71.2375,18.59,90,38,2.35,VE,1701652259
300,zdunska wola,51.5992,18.9397,-3.15,98,99,4.57,PL,1701652260
301,'ain benian,36.8028,2.9219,7.03,56,100,2.9,DZ,1701652261
302,edson,53.5835,-116.4356,-4.94,93,100,0.0,CA,1701652263
303,hotan,37.0997,79.9269,1.0,37,8,1.27,CN,1701652264
304,chernyshevskiy,63.0128,112.4714,-43.53,100,64,1.36,RU,1701652265
305,batesburg-leesville,33.9101,-81.5373,16.32,81,100,4.32,US,1701652269
306,saudarkrokur,65.7461,-19.6394,-4.28,79,87,3.45,IS,1701652270
307,rosetta,31.4044,30.4164,19.76,78,6,2.94,EG,1701652271
308,cassia,-20.5831,-46.9219,23.58,64,23,0.3,BR,1701652273
309,pyinmana,19.7333,96.2167,22.36,83,32,0.88,MM,1701652274
310,odda,60.0691,6.5457,1.54,97,79,1.86,NO,1701652276
311,puerto san jose,13.9256,-90.8244,26.74,74,5,0.49,GT,1701652277
312,malanje,-9.5402,16.341,16.05,98,100,1.7,AO,1701652278
313,ankazobe,-18.3167,47.1167,17.52,89,76,1.93,MG,1701652279
314,tafuna,-14.3358,-170.72,31.97,79,40,5.14,AS,1701652281
315,rio grande,-32.035,-52.0986,19.97,77,100,9.72,BR,1701652282
316,puerto armuelles,8.2833,-82.8667,26.72,68,98,1.34,PA,1701652283
317,riyadh,24.6877,46.7219,16.08,36,100,1.79,SA,1701652253
318,chabahar,25.2919,60.643,24.36,67,1,1.11,IR,1701652286
319,tete,-16.1564,33.5867,21.46,66,1,1.58,MZ,1701652287
320,baise city,23.8997,106.6133,16.86,99,100,0.2,CN,1701652289
321,fort mcmurray,56.7268,-111.381,-9.34,95,42,1.56,CA,1701652290
322,tabou,4.423,-7.3528,26.15,85,0,3.53,CI,1701652291
323,batang,-6.4846,110.7083,28.27,75,100,1.72,ID,1701652058
324,porto novo,6.4965,2.6036,25.9,89,88,2.32,BJ,1701652294
325,port said,31.2565,32.2841,21.68,79,100,3.47,EG,1701652295
326,nueva gerona,21.8833,-82.8,25.61,82,5,2.23,CU,1701652296
327,san patricio,28.017,-97.5169,18.92,42,100,2.39,US,1701652297
328,sanctuary point,-35.1114,150.629,23.88,58,50,3.66,AU,1701652299
329,ar ruways,24.1103,52.7306,23.41,68,91,3.0,AE,1701652300
330,goundi,9.3627,17.366,25.78,35,100,0.96,TD,1701652300
331,cambria,35.5641,-121.0808,16.76,86,100,1.34,US,1701652301
332,saint-philippe,-21.3585,55.7679,20.77,71,52,1.75,RE,1701652303
333,salaqi,40.5414,110.5108,-2.65,39,5,0.93,CN,1701652304
334,kingston,17.997,-76.7936,29.53,79,20,7.2,JM,1701651787
335,road town,18.4167,-64.6167,26.05,83,20,2.06,VG,1701652052
336,arraial do cabo,-22.9661,-42.0278,23.98,91,100,9.46,BR,1701652308
337,lavras,-21.2453,-44.9997,23.79,54,100,1.83,BR,1701652309
338,boguchany,58.3814,97.4531,0.48,93,100,5.36,RU,1701652310
339,camaqua,-30.8511,-51.8122,19.73,84,100,4.16,BR,1701652297
340,namibe,-15.1961,12.1522,22.66,88,100,1.61,AO,1701652315
341,swan hill,-35.3378,143.5544,29.62,19,87,3.84,AU,1701652187
342,berezovyy,51.6667,135.7,-9.77,77,100,0.39,RU,1701652317
343,al kharj,24.155,47.3346,18.28,33,100,2.19,SA,1701652318
344,dalbandin,28.8947,64.4101,12.64,35,0,2.02,PK,1701652319
345,pekanbaru,0.5333,101.45,24.18,100,40,2.57,ID,1701652321
346,anadyr,64.75,177.4833,-18.72,84,20,2.0,RU,1701652322
347,iskateley,67.6803,53.1512,-17.09,95,95,4.48,RU,1701652323
348,saint-leu,-21.15,55.2833,21.46,84,33,1.95,RE,1701652325
349,flin flon,54.7682,-101.865,-12.69,99,73,1.28,CA,1701652326
350,okha,53.5739,142.9478,-8.38,91,100,5.88,RU,1701652327
351,anar darah,32.7587,61.654,11.39,30,0,2.43,AF,1701652328
352,ilam,26.9167,87.9167,12.13,75,0,2.83,NP,1701652330
353,ixtapa-zihuatanejo,17.6333,-101.55,30.05,62,75,0.0,MX,1701652119
354,hastings,50.8552,0.5729,7.86,40,100,11.99,GB,1701652331
355,chapadinha,-3.7417,-43.3603,24.15,76,100,1.04,BR,1701652332
356,greymouth,-42.4667,171.2,16.01,66,22,3.49,NZ,1701652333
357,new norfolk,-42.7826,147.0587,20.72,43,100,1.11,AU,1701652334
358,mendefera,14.8872,38.8153,15.25,68,4,2.02,ER,1701652335
359,seram,17.1833,77.2833,20.73,72,100,2.46,IN,1701652337
360,zhob,31.3411,69.4481,8.14,48,0,0.8,PK,1701652338
361,raduzhny,62.0961,77.475,-28.51,94,26,4.8,RU,1701652339
362,alaghsas,17.0187,8.0168,22.03,18,80,2.78,NE,1701652341
363,bayanhongor,46.7167,100.1167,-13.79,78,78,1.41,MN,1701652343
364,crane,31.3974,-102.3501,15.24,25,0,6.69,US,1701652344
365,tamandare,-8.7597,-35.1047,25.62,89,29,4.12,BR,1701652346
366,emerald,-23.5333,148.1667,32.97,46,0,1.74,AU,1701652274
367,mahasamund,21.1,82.1,21.15,64,100,2.31,IN,1701652348
368,karratha,-20.7377,116.8463,27.85,67,5,5.33,AU,1701652350
369,devgarh,25.5333,73.9,14.58,95,57,2.0,IN,1701652351
370,nova sintra,14.8667,-24.7167,22.64,77,99,7.82,CV,1701652353
371,midland,31.9974,-102.0779,15.83,27,0,4.63,US,1701652152
372,natal,-5.795,-35.2094,26.36,89,20,3.09,BR,1701652161
373,ellsworth,44.5434,-68.4195,3.69,96,100,4.63,US,1701652356
374,east london,-33.0153,27.9116,19.97,80,100,1.85,ZA,1701652358
375,merizo village,13.2658,144.6691,31.31,82,72,8.66,GU,1701652359
376,coquimbo,-29.9533,-71.3436,16.48,71,0,2.1,CL,1701651772
377,puyo,-1.4667,-77.9833,19.68,96,64,1.28,EC,1701652361
378,papao,-17.75,-149.55,31.82,82,100,10.44,PF,1701652362
379,bheramara,24.0232,88.9925,19.91,58,100,2.85,BD,1701652363
380,luganville,-15.5333,167.1667,28.49,78,75,5.43,VU,1701652267
381,dudinka,69.4058,86.1778,-33.19,94,17,3.52,RU,1701652102
382,klyuchi,52.2667,79.1667,-8.21,77,100,9.4,RU,1701652366
383,poteau,35.0537,-94.6236,9.48,71,0,0.0,US,1701652311
384,hays,30.0502,-98.0336,17.81,44,93,0.45,US,1701652368
385,seini,47.75,23.2833,-0.14,96,75,0.0,RO,1701652369
386,idri,27.5,13.2667,14.94,21,0,4.82,LY,1701652371
387,fuglafjordur,62.244,-6.814,-2.74,69,97,5.41,FO,1701652372
388,magistral'nyy,56.1725,107.4458,-9.79,94,100,4.06,RU,1701652373
389,nema,57.5067,50.5011,-10.0,95,100,4.27,RU,1701652375
390,nha trang,12.25,109.1833,25.0,82,100,2.45,VN,1701652376
391,xining,36.6167,101.7667,-1.86,39,0,1.1,CN,1701652296
392,ponta delgada,37.7333,-25.6667,13.4,67,20,1.54,PT,1701652379
393,happy valley-goose bay,53.3168,-60.3315,-12.97,73,9,1.5,CA,1701652337
394,kassala,15.451,36.4,25.22,58,5,3.03,SD,1701652382
395,hazaribagh,23.9833,85.35,16.65,67,100,1.04,IN,1701652384
396,taltal,-25.4,-70.4833,17.92,77,11,1.43,CL,1701652221
397,timaru,-44.4,171.25,9.96,75,100,1.32,NZ,1701652386
398,qui nhon,13.7667,109.2333,25.23,89,100,3.23,VN,1701652388
399,basciftlik,40.5469,37.1692,6.18,56,100,3.32,TR,1701652389
400,zhangye,38.9342,100.4517,0.7,25,0,1.76,CN,1701652392
401,caleta de carquin,-11.0925,-77.6267,20.03,83,98,5.06,PE,1701652393
402,barra de santo antonio,-9.4047,-35.5072,25.6,89,22,4.09,BR,1701652394
403,gisborne,-38.6533,178.0042,17.37,84,100,4.98,NZ,1701652395
404,leh,34.1667,77.5833,-7.3,45,90,2.04,IN,1701652397
405,san ramon,37.7799,-121.978,15.42,80,0,2.57,US,1701652399
406,port lincoln,-34.7333,135.8667,24.8,45,0,4.09,AU,1701652400
407,ola,59.5833,151.2833,-18.94,85,67,3.3,RU,1701652402
408,muisne,0.6,-80.0333,25.29,85,91,3.54,EC,1701652404
409,puerto lempira,15.2667,-83.7667,25.37,92,16,3.8,HN,1701652405
410,sortavala,61.7053,30.6918,-15.55,99,91,1.79,RU,1701652407
411,keflavik,64.0049,-22.5624,1.24,75,100,7.72,IS,1701652409
412,gallipoli,40.4103,26.6708,12.92,90,100,4.72,TR,1701652410
413,nakhon thai,17.1006,100.8374,23.79,80,100,1.42,TH,1701652411
414,olinda,-8.0089,-34.8553,25.85,94,75,2.57,BR,1701652412
415,bria,6.5423,21.9863,22.06,82,100,1.08,CF,1701652413
416,vilyuysk,63.7553,121.6247,-48.46,100,75,0.24,RU,1701652414
417,prince rupert,54.3161,-130.3201,8.05,93,100,5.14,CA,1701652213
418,al hasakah,36.5024,40.7477,12.92,57,100,1.82,SY,1701652418
419,bardai,11.65,7.2333,19.66,26,86,1.86,NG,1701652420
420,pitimbu,-7.4706,-34.8086,27.33,83,42,4.39,BR,1701652267
421,"laikit, laikit ii (dimembe)",1.4792,124.9735,27.47,74,20,1.03,ID,1701652423
422,srandakan,-7.9386,110.2506,25.5,88,100,1.22,ID,1701652424
423,kayangel,8.0823,134.7173,26.32,88,100,11.02,PW,1701652425
424,walvis bay,-22.9575,14.5053,16.16,80,98,4.9,NA,1701652426
425,milagros,12.2181,123.5095,28.22,79,22,6.24,PH,1701652427
426,pavlovka,52.6897,47.1405,2.23,100,100,6.82,RU,1701652212
427,choibalsan,48.0667,114.5,-13.83,85,5,3.2,MN,1701652429
428,winnemucca,40.973,-117.7357,7.03,81,100,3.6,US,1701652430
429,kirkwall,58.9848,-2.9587,5.03,81,40,5.66,GB,1701652432
430,gewane,10.1664,40.6453,21.77,49,88,1.91,ET,1701652433
431,arno,60.1167,18.6333,-3.45,93,99,4.75,SE,1701652434
432,grand gaube,-20.0064,57.6608,23.54,89,92,0.45,MU,1701652435
433,griffith,41.5284,-87.4237,3.96,85,100,5.66,US,1701652436
434,karangampel,-6.4622,108.4519,27.1,79,100,1.63,ID,1701652437
435,summerside,46.3959,-63.7876,-0.3,72,100,7.24,CA,1701652439
436,margate,51.3813,1.3862,6.84,74,100,5.81,GB,1701652237
437,praia,14.9215,-23.5087,24.3,78,20,7.72,CV,1701652441
438,glace bay,46.1969,-59.957,1.55,80,100,1.79,CA,1701652443
439,mizdah,31.4451,12.9801,11.03,91,1,3.29,LY,1701652444
440,dalandzadgad,43.5708,104.425,-4.42,49,1,2.51,MN,1701652445
441,lorengau,-2.0226,147.2712,29.77,67,15,1.33,PG,1701652446
442,walla walla,46.0646,-118.343,14.17,83,100,5.14,US,1701652309
443,svobodnyy,51.4,128.1333,-12.14,87,100,4.68,RU,1701652448
444,arkalyk,50.2486,66.9114,-5.53,77,98,3.81,KZ,1701652449
445,kothi,24.75,80.7833,19.15,63,100,2.07,IN,1701652451
446,chilaw,7.5758,79.7953,27.11,82,86,6.92,LK,1701652452
447,mawu,29.5923,107.3139,11.0,84,95,0.84,CN,1701652453
448,vorkuta,67.5,64.0,-26.42,97,98,1.96,RU,1701652455
449,seminole,28.7086,-81.2081,24.04,85,75,1.54,US,1701652458
450,kittila,67.6647,24.8936,-7.92,93,20,2.06,FI,1701652459
451,birzebbuga,35.8258,14.5269,15.64,72,0,3.6,MT,1701652460
452,severo-yeniseyskiy,60.3725,93.0408,-16.35,95,100,5.36,RU,1701652461
453,ashmun,30.2986,30.9764,19.47,89,100,2.09,EG,1701652462
454,am timan,11.0297,20.2827,25.81,31,57,1.89,TD,1701652464
455,tongren,27.7172,109.1853,9.58,91,99,0.53,CN,1701652465
456,vegueta,-11.0231,-77.6431,19.88,83,99,5.1,PE,1701652466
457,longboat key,27.4125,-82.659,23.46,67,20,1.54,US,1701652467
458,ulsteinvik,62.3432,5.8487,-0.94,74,84,3.13,NO,1701652468
459,hua hin,12.5707,99.9588,25.03,87,100,3.62,TH,1701652470
460,la paz,-16.5,-68.15,12.54,75,73,1.34,BO,1701652464
461,tamanrasset,22.785,5.5228,11.95,11,0,2.06,DZ,1701652472
462,puerto palomas,31.7667,-107.6167,12.14,27,3,5.03,MX,1701652473
463,plastun,44.7561,136.2939,-1.52,43,9,1.73,RU,1701652475
464,grandview,38.8858,-94.533,8.33,80,100,3.09,US,1701652476
465,peniche,39.3558,-9.3811,15.62,85,100,7.51,PT,1701652477
466,katsuura,35.1333,140.3,12.07,41,0,2.28,JP,1701652478
467,holualoa,19.6228,-155.9522,25.91,83,20,4.12,US,1701652481
468,mersing,2.4312,103.8405,26.62,82,90,0.84,MY,1701652482
469,harlingen,26.1906,-97.6961,19.47,87,0,2.57,US,1701652483
470,zabol,32.25,67.25,3.27,72,0,1.38,AF,1701652484
471,saldanha,-33.0117,17.9442,16.6,84,8,4.47,ZA,1701652486
472,as sulayyil,20.4607,45.5779,15.14,48,5,3.67,SA,1701652487
473,turek,52.0155,18.5005,-3.01,90,100,5.23,PL,1701652488
474,rio verde de mato grosso,-18.9181,-54.8442,27.1,55,77,1.93,BR,1701652297
475,portland,45.5234,-122.6762,14.5,94,100,1.79,US,1701652225
476,burabay,53.0838,70.3138,-13.62,89,100,5.88,KZ,1701652491
477,donja mahala,45.0469,18.6664,-3.01,70,0,0.25,BA,1701652492
478,hambuhren,52.6333,9.9833,-0.48,90,100,2.57,DE,1701652493
479,nouadhibou,20.931,-17.0347,19.99,77,20,5.14,MR,1701652494
480,tralee,52.2704,-9.7026,2.96,91,63,4.24,IE,1701652496
481,yantai,37.5333,121.4,6.02,64,12,5.03,CN,1701652497
482,mata-utu,-13.2816,-176.1745,28.68,76,95,6.02,WF,1701652498
483,howard springs,-12.497,131.047,33.32,74,93,1.96,AU,1701652500
484,kidal,18.4411,1.4078,21.26,12,9,4.55,ML,1701652501
485,sakaiminato,35.55,133.2333,10.71,57,9,3.82,JP,1701652503
486,saint-denis,48.9167,2.3333,4.27,60,0,6.69,FR,1701652506
487,kavaratti,10.5669,72.642,28.01,78,16,4.67,IN,1701652507
488,la peca,-5.6111,-78.435,21.67,83,72,1.87,PE,1701652508
489,enewetak,11.3474,162.3373,27.53,79,93,8.99,MH,1701652509
490,marshfield,44.6689,-90.1718,0.49,86,100,1.54,US,1701652511
491,jayapura,-2.5333,140.7,26.66,75,100,0.36,ID,1701652513
492,coronel suarez,-37.4547,-61.9334,12.09,36,0,6.8,AR,1701652514
493,port saint john's,-31.6229,29.5448,20.05,90,16,1.94,ZA,1701652516
494,limon,10.0,-83.0333,25.03,84,100,0.58,CR,1701652517
495,lashio,22.9333,97.75,15.41,95,100,0.41,MM,1701652518
496,aswan,24.0934,32.907,21.18,49,16,3.63,EG,1701652520
497,tolanaro,-25.0319,46.9987,21.13,77,1,4.96,MG,1701652521
498,vyyezdnoye,55.3815,43.7864,-2.27,95,100,3.81,RU,1701652522
499,la passe,45.5549,-0.8967,7.13,88,100,9.12,FR,1701652524
500,awjilah,29.1081,21.2869,15.85,40,53,3.38,LY,1701652524
501,kermit,31.8576,-103.0927,16.14,21,0,5.66,US,1701652525
502,janja,44.6653,19.2478,-4.08,71,0,0.99,BA,1701652527
503,nova vicosa,-17.8919,-39.3719,25.52,84,11,5.25,BR,1701652241
504,zonguldak,41.25,31.8333,9.96,67,100,1.73,TR,1701652529
505,sao vicente,-23.9631,-46.3919,28.48,26,87,0.83,BR,1701652409
506,grootfontein,-19.5667,18.1167,24.03,48,100,5.98,NA,1701652531
507,nikol'sk,53.7189,46.0712,1.45,94,100,7.27,RU,1701652533
508,lianyuan,27.6883,111.6642,9.37,86,99,0.66,CN,1701652534
509,champerico,14.3,-91.9167,27.52,73,6,1.18,GT,1701652535
510,sparti,37.0733,22.4297,15.53,93,74,0.72,GR,1701652537
511,itajuba,-22.4256,-45.4528,25.42,73,97,1.27,BR,1701652538
512,kincardine,56.0667,-3.7167,3.44,99,100,2.08,GB,1701652540
513,dabakala,8.3667,-4.4333,26.47,55,6,0.59,CI,1701652278
514,mountain home,43.133,-115.6912,4.68,97,75,3.09,US,1701652541
515,garissa,-0.4536,39.6401,25.8,81,17,3.57,KE,1701652542
516,conduaga,8.862,117.4893,28.82,67,14,0.71,PH,1701652544
517,nuku'alofa,-21.1333,-175.2,29.19,79,75,6.69,TO,1701652545
518,shreveport,32.5251,-93.7502,13.12,66,0,2.57,US,1701652546
519,al ghayzah,16.2079,52.176,23.79,68,9,2.7,YE,1701652548
520,apolinario saravia,-24.4328,-63.9954,16.57,77,100,9.18,AR,1701652549
521,jackson,42.4165,-122.8345,13.33,91,100,1.54,US,1701651836
522,santa ana,33.7456,-117.8678,19.6,64,40,2.57,US,1701652551
523,manokwari,-0.8667,134.0833,28.22,76,41,1.36,ID,1701652553
524,amga,60.8953,131.9608,-48.14,100,74,0.41,RU,1701652554
525,tyup,42.7276,78.3648,0.78,80,100,0.55,KG,1701652555
526,katsuren-haebaru,26.3369,127.8719,20.22,93,100,6.17,JP,1701652556
527,uige,-7.6087,15.0613,17.57,98,100,1.03,AO,1701652557
528,whakatane,-37.9585,176.9854,23.27,77,100,2.69,NZ,1701652558
529,nemuro,43.3236,145.575,3.51,66,68,1.69,JP,1701652559
530,ulladulla,-35.35,150.4667,24.87,60,53,4.07,AU,1701652561
531,laela,-8.5667,32.05,15.56,92,100,1.27,TZ,1701652564
532,torghay,49.6339,63.4981,-1.72,66,100,2.28,KZ,1701652567
533,nevel',56.0209,29.9284,-17.11,99,100,1.65,RU,1701652568
534,bikaner,28.0167,73.3,15.99,38,0,1.91,IN,1701652570
535,bonthe,7.5264,-12.505,26.46,85,100,2.29,SL,1701652571
536,baruun-urt,46.6806,113.2792,-17.97,95,10,2.13,MN,1701652572
537,tsiombe,-25.3,45.4833,21.21,70,2,5.84,MG,1701652573
538,shyryayeve,47.3805,30.1964,-1.13,75,100,3.57,UA,1701652574
539,kavieng,-2.5744,150.7967,28.77,74,97,3.05,PG,1701652575
540,leava,-14.3,-178.1667,28.7,77,100,6.92,WF,1701652577
541,ishimbay,53.4545,56.0415,-6.52,89,100,6.3,RU,1701652581
542,dryden,49.7833,-92.7503,-0.84,86,100,4.12,CA,1701652583
543,pandan,14.0453,124.1694,27.05,87,56,6.21,PH,1701652584
544,mount gambier,-37.8333,140.7667,28.6,21,64,4.43,AU,1701652585
545,broome,42.2506,-75.833,8.16,89,100,3.6,US,1701652587
546,san sebastian de la gomera,28.0916,-17.1133,20.77,82,75,0.51,ES,1701652588
547,priozersk,61.0393,30.1291,-6.11,85,100,1.55,RU,1701652589
548,angaur state,6.906,134.13,27.03,83,100,6.22,PW,1701652589
549,spanish springs,39.6491,-119.7074,11.04,59,100,2.57,US,1701652438
550,sumbe,-11.2061,13.8437,25.18,83,100,2.07,AO,1701652592
551,ntoum,0.3833,9.7833,24.87,95,95,0.91,GA,1701652593
552,prineville,44.2999,-120.8345,12.84,69,100,7.72,US,1701652595
553,kupang,-10.1667,123.5833,33.32,62,40,3.6,ID,1701652596
554,rundu,-17.9333,19.7667,21.97,59,78,2.12,NA,1701652597
555,lewistown,40.5992,-77.5714,11.87,96,0,0.0,US,1701652598
556,bhabhua,25.05,83.6167,19.26,57,15,0.47,IN,1701652599
557,bairnsdale,-37.8333,147.6167,24.47,62,82,0.89,AU,1701652601
558,newnham,-41.3833,147.1333,18.53,59,100,7.2,AU,1701652602
559,noshiro,40.2039,140.0242,1.46,88,93,1.67,JP,1701652603
560,nikki,9.9401,3.2108,22.4,15,14,1.2,BJ,1701652604
561,mana,5.6592,-53.7767,26.12,90,97,4.27,GF,1701652605
562,galliano,29.4422,-90.2992,18.0,88,0,0.0,US,1701652606
563,lodwar,3.1191,35.5973,28.41,43,3,5.74,KE,1701652608
564,luba,3.4568,8.5547,23.94,83,91,2.79,GQ,1701652609
565,oral,51.2333,51.3667,0.99,100,100,5.0,KZ,1701652611
566,fauske,67.2588,15.3918,-6.98,74,0,2.58,NO,1701652612
567,delmiro gouveia,-9.3886,-37.9992,26.41,72,55,4.65,BR,1701652613
568,laurentides,46.4334,-74.9826,-1.83,96,100,4.68,CA,1701652614
569,minas de marcona,-15.2119,-75.1103,14.67,81,33,6.32,PE,1701652616
570,mzimba,-11.9,33.6,17.31,89,22,1.9,MW,1701652617
571,vila velha,-20.3297,-40.2925,26.97,86,75,4.63,BR,1701652618
572,taroa,8.7058,171.2275,27.71,76,100,8.7,MH,1701652619
573,yeppoon,-23.1333,150.7333,31.88,64,12,4.49,AU,1701652620
574,santana,-0.0583,-51.1817,29.1,79,75,3.6,BR,1701652621
575,sorong,-0.8833,131.25,28.62,74,53,2.61,ID,1701652622
576,howrah,22.5892,88.3103,22.0,78,75,2.06,IN,1701652624
577,akrehamn,59.2667,5.1833,1.9,93,20,4.12,NO,1701652625
578,sitka,57.0531,-135.33,7.94,66,100,8.75,US,1701652614
579,castillos,-34.1667,-53.8333,16.13,48,100,6.05,UY,1701652628
580,saint-pierre,-21.3393,55.4781,20.87,64,17,5.14,RE,1701652629
581,kruisfontein,-34.0033,24.7314,12.71,89,100,2.0,ZA,1701652630
582,butembo,0.15,29.2833,13.68,98,90,0.98,CD,1701652631
583,isangel,-19.55,169.2667,29.06,74,75,3.09,VU,1701652633
584,titao,13.7667,-2.0667,25.37,18,100,4.26,BF,1701652634
